[
    {
        "Clave":"CNDCA",
        "Estacion":"Candelaria, Camp.",
        "Latitud":18.183056,
        "Longitud":-91.046111,
        "Altitud":50,
        "Estado":"Campeche",
        "Municipio":"Candelaria",
        "RH":"30",
        "Cuenca":"Grijalva - Usumacinta"
    },
    {
        "Clave":"CANCA",
        "Estacion":"Canasayab, Camp.",
        "Latitud":19.295,
        "Longitud":-90.575556,
        "Altitud":17,
        "Estado":"Campeche",
        "Municipio":"Champotón",
        "RH":"31",
        "Cuenca":"Grijalva - Usumacinta"
    },
    {
        "Clave":"CDLCL",
        "Estacion":"Candela, Coah.",
        "Latitud":26.844444,
        "Longitud":-100.661111,
        "Altitud":620,
        "Estado":"Coahuila de Zaragoza",
        "Municipio":"Candela",
        "RH":"24",
        "Cuenca":"Río Medio Bravo"
    },
    {
        "Clave":"SBNCL",
        "Estacion":"Sabinas, Coah.",
        "Latitud":27.846667,
        "Longitud":-101.122778,
        "Altitud":339,
        "Estado":"Coahuila de Zaragoza",
        "Municipio":"Sabinas",
        "RH":"24",
        "Cuenca":"Bravo Conchos"
    },
    {
        "Clave":"CL3CM",
        "Estacion":"Callejones C.P. M.I., Col.",
        "Latitud":18.825833,
        "Longitud":-103.623333,
        "Altitud":24,
        "Estado":"Colima",
        "Municipio":"Tecomán",
        "RH":"16",
        "Cuenca":"Rio Coahuayaná"
    },
    {
        "Clave":"CLLCM",
        "Estacion":"Callejones, Col.",
        "Latitud":18.826389,
        "Longitud":-103.626111,
        "Altitud":42,
        "Estado":"Colima",
        "Municipio":"Tecomán",
        "RH":"16",
        "Cuenca":"Rio Coahuayaná"
    },
    {
        "Clave":"DJLCM",
        "Estacion":"Presa derivadora Jala, Col.",
        "Latitud":19.111389,
        "Longitud":-103.884444,
        "Altitud":200,
        "Estado":"Colima",
        "Municipio":"Tecomán",
        "RH":"16",
        "Cuenca":"Río Armería"
    },
    {
        "Clave":"MADCM",
        "Estacion":"Cuastecomatan, Col.",
        "Latitud":19.210278,
        "Longitud":-103.885833,
        "Altitud":200,
        "Estado":"Colima",
        "Municipio":"Tecomán",
        "RH":"16",
        "Cuenca":"Río Armería"
    },
    {
        "Clave":"PN2CM",
        "Estacion":"Canal principal de Peñitas, Col.",
        "Latitud":18.826111,
        "Longitud":-103.622778,
        "Altitud":270,
        "Estado":"Colima",
        "Municipio":"Comala",
        "RH":"16",
        "Cuenca":"Río Armería"
    },
    {
        "Clave":"PNTCM",
        "Estacion":"Peñitas, Col.",
        "Latitud":19.3275,
        "Longitud":-103.8125,
        "Altitud":457,
        "Estado":"Colima",
        "Municipio":"Comala",
        "RH":"16",
        "Cuenca":"Río Armería"
    },
    {
        "Clave":"TECCM",
        "Estacion":"Jala Tecuanillo, Col.",
        "Latitud":19.111389,
        "Longitud":-103.884167,
        "Altitud":191,
        "Estado":"Colima",
        "Municipio":"Tecomán",
        "RH":"16",
        "Cuenca":"Río Armería"
    },
    {
        "Clave":"ACACP",
        "Estacion":"Acala, Chis.",
        "Latitud":16.552778,
        "Longitud":-92.804167,
        "Altitud":393,
        "Estado":"Chiapas",
        "Municipio":"Acala",
        "RH":"30",
        "Cuenca":"Alto Grijalva"
    },
    {
        "Clave":"AQECP",
        "Estacion":"Aquespala, Chis.",
        "Latitud":15.783333,
        "Longitud":-91.911111,
        "Altitud":675,
        "Estado":"Chiapas",
        "Municipio":"La Trinitaria",
        "RH":"30",
        "Cuenca":"Alto Grijalva"
    },
    {
        "Clave":"BOQCP",
        "Estacion":"Boquerón, Chis.",
        "Latitud":16.641944,
        "Longitud":-93.15,
        "Altitud":480,
        "Estado":"Chiapas",
        "Municipio":"Suchiapa",
        "RH":"30",
        "Cuenca":"Alto Grijalva"
    },
    {
        "Clave":"CACCP",
        "Estacion":"Cacaluta, Chis.",
        "Latitud":15.35,
        "Longitud":-92.716667,
        "Altitud":20,
        "Estado":"Chiapas",
        "Municipio":"Acacoyagua",
        "RH":"23",
        "Cuenca":"Costa de Chiapas"
    },
    {
        "Clave":"CASCP",
        "Estacion":"Cascajal, Chis.",
        "Latitud":16.308333,
        "Longitud":-92.479167,
        "Altitud":650,
        "Estado":"Chiapas",
        "Municipio":"Venustiano Carranza",
        "RH":"30",
        "Cuenca":"Alto Grijalva"
    },
    {
        "Clave":"CHMCP",
        "Estacion":"Chicomuselo, Chis.",
        "Latitud":15.75,
        "Longitud":-92.283333,
        "Altitud":710,
        "Estado":"Chiapas",
        "Municipio":"Chicomuselo",
        "RH":"30",
        "Cuenca":"Alto Grijalva"
    },
    {
        "Clave":"DESCP",
        "Estacion":"Despoblado, Chis.",
        "Latitud":15.204167,
        "Longitud":-92.575,
        "Altitud":115,
        "Estado":"Chiapas",
        "Municipio":"Villa Comaltitlán",
        "RH":"23",
        "Cuenca":"Costa de Chiapas"
    },
    {
        "Clave":"ELNCP",
        "Estacion":"El Novillero, Chis.",
        "Latitud":15.495833,
        "Longitud":-92.95,
        "Altitud":98,
        "Estado":"Chiapas",
        "Municipio":"Mapastepec",
        "RH":"23",
        "Cuenca":"Costa de Chiapas"
    },
    {
        "Clave":"ESCCP",
        "Estacion":"Escuintla, Chis.",
        "Latitud":15.316667,
        "Longitud":-92.666667,
        "Altitud":110,
        "Estado":"Chiapas",
        "Municipio":"Escuintla",
        "RH":"23",
        "Cuenca":"Costa de Chiapas"
    },
    {
        "Clave":"GRICP",
        "Estacion":"Grijalva, Chis.",
        "Latitud":16.975,
        "Longitud":-93.125,
        "Altitud":211,
        "Estado":"Chiapas",
        "Municipio":"Chicoasén",
        "RH":"30",
        "Cuenca":"Alto Grijalva"
    },
    {
        "Clave":"HUICP",
        "Estacion":"Huixtla, Chis.",
        "Latitud":15.133333,
        "Longitud":-92.472222,
        "Altitud":40,
        "Estado":"Chiapas",
        "Municipio":"Huixtla",
        "RH":"23",
        "Cuenca":"Costa de Chiapas"
    },
    {
        "Clave":"JESCP",
        "Estacion":"Jesús, Chis.",
        "Latitud":15.875,
        "Longitud":-93.475,
        "Altitud":90,
        "Estado":"Chiapas",
        "Municipio":"Tonalá",
        "RH":"23",
        "Cuenca":"Costa de Chiapas"
    },
    {
        "Clave":"LACCP",
        "Estacion":"Lacantún, Chis.",
        "Latitud":16.580833,
        "Longitud":-90.702222,
        "Altitud":905,
        "Estado":"Chiapas",
        "Municipio":"Ocosingo",
        "RH":"30",
        "Cuenca":"Usumacinta"
    },
    {
        "Clave":"LESCP",
        "Estacion":"La Escalera, Chis.",
        "Latitud":16.490278,
        "Longitud":-93.025,
        "Altitud":485,
        "Estado":"Chiapas",
        "Municipio":"Chiapa de Corzo",
        "RH":"30",
        "Cuenca":"Alto Grijalva"
    },
    {
        "Clave":"MAPCP",
        "Estacion":"Mapastepec, Chis.",
        "Latitud":15.45,
        "Longitud":-92.883333,
        "Altitud":32,
        "Estado":"Chiapas",
        "Municipio":"Mapastepec",
        "RH":"23",
        "Cuenca":"Costa de Chiapas"
    },
    {
        "Clave":"MARCP",
        "Estacion":"Margaritas, Chis.",
        "Latitud":15.583333,
        "Longitud":-93.066667,
        "Altitud":1512,
        "Estado":"Chiapas",
        "Municipio":"Pijijiapan",
        "RH":"23",
        "Cuenca":"Costa de Chiapas"
    },
    {
        "Clave":"PCOCP",
        "Estacion":"Puente Concordia, Chis.",
        "Latitud":15.848611,
        "Longitud":-91.968056,
        "Altitud":582,
        "Estado":"Chiapas",
        "Municipio":"Frontera Comalapa",
        "RH":"30",
        "Cuenca":"Alto Grijalva"
    },
    {
        "Clave":"PICCP",
        "Estacion":"Pichucalco, Chis.",
        "Latitud":17.511944,
        "Longitud":-93.113889,
        "Altitud":114,
        "Estado":"Chiapas",
        "Municipio":"Pichucalco",
        "RH":"30",
        "Cuenca":"Bajo Grijalva"
    },
    {
        "Clave":"PIJCP",
        "Estacion":"Pijijiapan, Chis.",
        "Latitud":15.691667,
        "Longitud":-93.216667,
        "Altitud":38,
        "Estado":"Chiapas",
        "Municipio":"Pijijiapan",
        "RH":"23",
        "Cuenca":"Costa de Chiapas"
    },
    {
        "Clave":"PLACP",
        "Estacion":"Platanar, Chis.",
        "Latitud":17.577778,
        "Longitud":-93.3875,
        "Altitud":38,
        "Estado":"Chiapas",
        "Municipio":"Pichucalco",
        "RH":"30",
        "Cuenca":"Bajo Grijalva"
    },
    {
        "Clave":"REFCP",
        "Estacion":"Reforma, Chis.",
        "Latitud":15.916667,
        "Longitud":-92.666667,
        "Altitud":588,
        "Estado":"Chiapas",
        "Municipio":"La Concordia",
        "RH":"30",
        "Cuenca":"Alto Grijalva"
    },
    {
        "Clave":"REVCP",
        "Estacion":"Revolución Mexicana, Chis.",
        "Latitud":16.158333,
        "Longitud":-93.079167,
        "Altitud":588,
        "Estado":"Chiapas",
        "Municipio":"Villa Corzo",
        "RH":"30",
        "Cuenca":"Alto Grijalva"
    },
    {
        "Clave":"RCACP",
        "Estacion":"Rómulo Calzada, Chis.",
        "Latitud":17.348333,
        "Longitud":-93.552778,
        "Altitud":116,
        "Estado":"Chiapas",
        "Municipio":"Tecpatán",
        "RH":"30",
        "Cuenca":"Bajo Grijalva"
    },
    {
        "Clave":"SAACP",
        "Estacion":"Salto de Agua, Chis.",
        "Latitud":17.566667,
        "Longitud":-92.35,
        "Altitud":92,
        "Estado":"Chiapas",
        "Municipio":"Salto de Agua",
        "RH":"30",
        "Cuenca":"Grijalva - Usumacinta"
    },
    {
        "Clave":"SAYCP",
        "Estacion":"Sayula, Chis.",
        "Latitud":17.425,
        "Longitud":-93.383333,
        "Altitud":228,
        "Estado":"Chiapas",
        "Municipio":"Ostuacán",
        "RH":"30",
        "Cuenca":"Bajo Grijalva"
    },
    {
        "Clave":"SCRCP",
        "Estacion":"Puente Morelos, Chis.",
        "Latitud":16.741667,
        "Longitud":-92.616667,
        "Altitud":2113,
        "Estado":"Chiapas",
        "Municipio":"San Cristóbal de las Casas",
        "RH":"30",
        "Cuenca":"Alto Grijalva"
    },
    {
        "Clave":"SDICP",
        "Estacion":"San Diego, Chis.",
        "Latitud":15.7425,
        "Longitud":-93.3,
        "Altitud":840,
        "Estado":"Chiapas",
        "Municipio":"Pijijiapan",
        "RH":"23",
        "Cuenca":"Costa de Chiapas"
    },
    {
        "Clave":"SDOCP",
        "Estacion":"Santo Domingo, Chis.",
        "Latitud":16.4525,
        "Longitud":-93.056389,
        "Altitud":500,
        "Estado":"Chiapas",
        "Municipio":"Chiapa de Corzo",
        "RH":"30",
        "Cuenca":"Alto Grijalva"
    },
    {
        "Clave":"SMICP",
        "Estacion":"San Miguel, Chis.",
        "Latitud":15.775,
        "Longitud":-92.239444,
        "Altitud":710,
        "Estado":"Chiapas",
        "Municipio":"Frontera Comalapa",
        "RH":"30",
        "Cuenca":"Alto Grijalva"
    },
    {
        "Clave":"SUCCP",
        "Estacion":"Suchiate, Chis.",
        "Latitud":14.683333,
        "Longitud":-92.133333,
        "Altitud":18,
        "Estado":"Chiapas",
        "Municipio":"Suchiate",
        "RH":"23",
        "Cuenca":"Costa de Chiapas"
    },
    {
        "Clave":"TALCP",
        "Estacion":"Talismán, Chis.",
        "Latitud":14.966667,
        "Longitud":-92.147222,
        "Altitud":148,
        "Estado":"Chiapas",
        "Municipio":"Tuxtla Chico",
        "RH":"23",
        "Cuenca":"Costa de Chiapas"
    },
    {
        "Clave":"TAMCP",
        "Estacion":"Malpaso II, Chis.",
        "Latitud":14.99,
        "Longitud":-92.243333,
        "Altitud":18,
        "Estado":"Chiapas",
        "Municipio":"Tapachula",
        "RH":"23",
        "Cuenca":"Costa de Chiapas"
    },
    {
        "Clave":"TONCP",
        "Estacion":"Tonalá, Chis.",
        "Latitud":16.086944,
        "Longitud":-93.75,
        "Altitud":55,
        "Estado":"Chiapas",
        "Municipio":"Tonalá",
        "RH":"23",
        "Cuenca":"Costa de Chiapas"
    },
    {
        "Clave":"TPICP",
        "Estacion":"Tres Picos, Chis.",
        "Latitud":15.875,
        "Longitud":-93.529167,
        "Altitud":55,
        "Estado":"Chiapas",
        "Municipio":"Tonalá",
        "RH":"23",
        "Cuenca":"Costa de Chiapas"
    },
    {
        "Clave":"YAMCP",
        "Estacion":"Yamonhó, Chis.",
        "Latitud":17.116667,
        "Longitud":-93.330556,
        "Altitud":325,
        "Estado":"Chiapas",
        "Municipio":"Tecpatán",
        "RH":"30",
        "Cuenca":"Alto Grijalva"
    },
    {
        "Clave":"BTPCH",
        "Estacion":"Batopilas, Chih.",
        "Latitud":27.033611,
        "Longitud":-107.723611,
        "Altitud":565,
        "Estado":"Chihuahua",
        "Municipio":"Batopilas de Manuel Gómez Morín",
        "RH":"10",
        "Cuenca":"Río Fuerte"
    },
    {
        "Clave":"CL2CH",
        "Estacion":"Colina hidrométrica, Chih.",
        "Latitud":27.410278,
        "Longitud":-105.381667,
        "Altitud":1245,
        "Estado":"Chihuahua",
        "Municipio":"San Francisco de Conchos",
        "RH":"24",
        "Cuenca":"Río Conchos"
    },
    {
        "Clave":"CNDCH",
        "Estacion":"Chínipas, Chih.",
        "Latitud":27.416667,
        "Longitud":-108.541667,
        "Altitud":490,
        "Estado":"Chihuahua",
        "Municipio":"Chínipas",
        "RH":"10",
        "Cuenca":"Río Fuerte"
    },
    {
        "Clave":"GPCCH",
        "Estacion":"Guapoca, Chih.",
        "Latitud":29.2,
        "Longitud":-108.3,
        "Altitud":1260,
        "Estado":"Chihuahua",
        "Municipio":"Madera",
        "RH":"9",
        "Cuenca":"Yaqui - Matapé"
    },
    {
        "Clave":"GRCCH",
        "Estacion":"Guerachi, Chih.",
        "Latitud":26.813056,
        "Longitud":-107.072778,
        "Altitud":2430,
        "Estado":"Chihuahua",
        "Municipio":"Guachochi",
        "RH":"10",
        "Cuenca":"Río Fuerte"
    },
    {
        "Clave":"IGNCH",
        "Estacion":"San Ignacio, Chih.",
        "Latitud":26.870833,
        "Longitud":-107.879167,
        "Altitud":501,
        "Estado":"Chihuahua",
        "Municipio":"Batopilas de Manuel Gómez Morín",
        "RH":"0",
        "Cuenca":"Río Fuerte"
    },
    {
        "Clave":"JMNCH",
        "Estacion":"Jiménez, Chih.",
        "Latitud":27.126667,
        "Longitud":-104.912778,
        "Altitud":1479,
        "Estado":"Chihuahua",
        "Municipio":"Jiménez",
        "RH":"24",
        "Cuenca":"Río Conchos"
    },
    {
        "Clave":"TCNCH",
        "Estacion":"Tecuan, Chih.",
        "Latitud":27.579167,
        "Longitud":-105.366667,
        "Altitud":0,
        "Estado":"Chihuahua",
        "Municipio":"San Francisco de Conchos",
        "RH":"24",
        "Cuenca":"Río Conchos"
    },
    {
        "Clave":"URECH",
        "Estacion":"Urique, Chih.",
        "Latitud":27.216667,
        "Longitud":-107.9125,
        "Altitud":599,
        "Estado":"Chihuahua",
        "Municipio":"Urique",
        "RH":"10",
        "Cuenca":"Río Fuerte"
    },
    {
        "Clave":"AMLDR",
        "Estacion":"Agustín Melgar, Dgo.",
        "Latitud":25.264167,
        "Longitud":-104.068056,
        "Altitud":1225,
        "Estado":"Durango",
        "Municipio":"Nazas",
        "RH":"36",
        "Cuenca":"Río Nazas"
    },
    {
        "Clave":"CB2DR",
        "Estacion":"Caboraca hidrométrica, Dgo.",
        "Latitud":24.516667,
        "Longitud":-104.8,
        "Altitud":2003,
        "Estado":"Durango",
        "Municipio":"Canatlán",
        "RH":"11",
        "Cuenca":"San Pedro - Rosa Morada"
    },
    {
        "Clave":"CFRDR",
        "Estacion":"Cañón Fernández hidrométrica de Francisco Zarco, Dgo.",
        "Latitud":25.265278,
        "Longitud":-103.773611,
        "Altitud":1200,
        "Estado":"Durango",
        "Municipio":"Cuencamé",
        "RH":null,
        "Cuenca":"Río Nazas"
    },
    {
        "Clave":"FV2DR",
        "Estacion":"Francisco Villa hidrométrica, Dgo.",
        "Latitud":24.001667,
        "Longitud":-103.960278,
        "Altitud":1961,
        "Estado":"Durango",
        "Municipio":"Poanas",
        "RH":"11",
        "Cuenca":"San Pedro - Rosa Morada"
    },
    {
        "Clave":"GVHDR",
        "Estacion":"Guadalupe Victoria hidrométrica, Dgo.",
        "Latitud":23.960278,
        "Longitud":-104.751944,
        "Altitud":1982,
        "Estado":"Durango",
        "Municipio":"Durango",
        "RH":"11",
        "Cuenca":"San Pedro - Rosa Morada"
    },
    {
        "Clave":"PALDR",
        "Estacion":"Palmito hidrométrica de Lázaro Cárdenas, Dgo.",
        "Latitud":25.614444,
        "Longitud":-105.003611,
        "Altitud":1600,
        "Estado":"Durango",
        "Municipio":"Indé",
        "RH":"36",
        "Cuenca":"Río Nazas"
    },
    {
        "Clave":"SACDR",
        "Estacion":"Salomé Acosta, Dgo.",
        "Latitud":25.225,
        "Longitud":-105.443056,
        "Altitud":1670,
        "Estado":"Durango",
        "Municipio":"Santiago Papasquiaro",
        "RH":"36",
        "Cuenca":"Río Ramos y del Oro"
    },
    {
        "Clave":"SB2DR",
        "Estacion":"Santiago Bayacora hidrométrica, Dgo.",
        "Latitud":23.873333,
        "Longitud":-104.673889,
        "Altitud":1900,
        "Estado":"Durango",
        "Municipio":"Durango",
        "RH":"11",
        "Cuenca":"San Pedro - Rosa Morada"
    },
    {
        "Clave":"SRDDR",
        "Estacion":"Sardinas, Dgo.",
        "Latitud":26.084444,
        "Longitud":-105.566667,
        "Altitud":1639,
        "Estado":"Durango",
        "Municipio":"San Bernardo",
        "RH":"36",
        "Cuenca":"Río Ramos y del Oro"
    },
    {
        "Clave":"TDRDR",
        "Estacion":"El Tule del Real, Dgo.",
        "Latitud":24.702222,
        "Longitud":-106.538056,
        "Altitud":300,
        "Estado":"Durango",
        "Municipio":"Tamazula",
        "RH":"10",
        "Cuenca":"Río Elotla"
    },
    {
        "Clave":"TMZDR",
        "Estacion":"Tamazula, Dgo.",
        "Latitud":24.933333,
        "Longitud":-106.975,
        "Altitud":1580,
        "Estado":"Durango",
        "Municipio":"Tamazula",
        "RH":"10",
        "Cuenca":"Rio Culiacán"
    },
    {
        "Clave":"ACSGJ",
        "Estacion":"Arroyo los castillos, Gto.",
        "Latitud":21.2,
        "Longitud":-101.666667,
        "Altitud":1874,
        "Estado":"Guanajuato",
        "Municipio":"León",
        "RH":"12",
        "Cuenca":"Medio Lerma"
    },
    {
        "Clave":"AMCGJ",
        "Estacion":"Ameche, Gto.",
        "Latitud":20.553889,
        "Longitud":-100.5825,
        "Altitud":1786,
        "Estado":"Guanajuato",
        "Municipio":"Apaseo el Grande",
        "RH":"12",
        "Cuenca":"La Laja"
    },
    {
        "Clave":"ANSGJ",
        "Estacion":"Arandas, Gto.",
        "Latitud":20.712778,
        "Longitud":-101.370833,
        "Altitud":1740,
        "Estado":"Guanajuato",
        "Municipio":"Irapuato",
        "RH":"12",
        "Cuenca":"Medio Lerma"
    },
    {
        "Clave":"BEGGJ",
        "Estacion":"La Begoña hidrométrica, Gto.",
        "Latitud":20.833333,
        "Longitud":-100.816667,
        "Altitud":1820,
        "Estado":"Guanajuato",
        "Municipio":"San Miguel de Allende",
        "RH":"12",
        "Cuenca":"La Laja"
    },
    {
        "Clave":"BRAGJ",
        "Estacion":"Braniff, Gto.",
        "Latitud":20.05,
        "Longitud":-100.666667,
        "Altitud":1879,
        "Estado":"Guanajuato",
        "Municipio":"Acámbaro",
        "RH":"12",
        "Cuenca":"Alto Lerma"
    },
    {
        "Clave":"CAYGJ",
        "Estacion":"Canal alimentador a Yuriria",
        "Latitud":20.269722,
        "Longitud":-101.019722,
        "Altitud":0,
        "Estado":"Guanajuato",
        "Municipio":"Salvatierra",
        "RH":null,
        "Cuenca":"Alto Lerma"
    },
    {
        "Clave":"CEYGJ",
        "Estacion":"Canal extracciones Yuriria, Gto.",
        "Latitud":20.266667,
        "Longitud":-101.216667,
        "Altitud":1730,
        "Estado":"Guanajuato",
        "Municipio":"Jaral del Progreso",
        "RH":"12",
        "Cuenca":"Alto Lerma"
    },
    {
        "Clave":"CPLGJ",
        "Estacion":"Copalillo, Gto.",
        "Latitud":20.721667,
        "Longitud":-101.346667,
        "Altitud":0,
        "Estado":"Guanajuato",
        "Municipio":"Irapuato",
        "RH":"0",
        "Cuenca":"Alto Lerma"
    },
    {
        "Clave":"CSSGJ",
        "Estacion":"Los Castillos, Gto.",
        "Latitud":21.191667,
        "Longitud":-101.666667,
        "Altitud":1853,
        "Estado":"Guanajuato",
        "Municipio":"León",
        "RH":null,
        "Cuenca":"Medio Lerma"
    },
    {
        "Clave":"CSTGJ",
        "Estacion":"Los Castillos, Gto.",
        "Latitud":21.195556,
        "Longitud":-101.6675,
        "Altitud":1874,
        "Estado":"Guanajuato",
        "Municipio":"León",
        "RH":"12",
        "Cuenca":"Medio Lerma"
    },
    {
        "Clave":"CYUGJ",
        "Estacion":"Canal alimentador Yuriria, Gto.",
        "Latitud":20.216667,
        "Longitud":-101.133333,
        "Altitud":1736,
        "Estado":"Guanajuato",
        "Municipio":"Yuriria",
        "RH":"12",
        "Cuenca":"Alto Lerma"
    },
    {
        "Clave":"ECBGJ",
        "Estacion":"El Cubo, Gto.",
        "Latitud":20.279722,
        "Longitud":-100.9,
        "Altitud":1775,
        "Estado":"Guanajuato",
        "Municipio":"Salvatierra",
        "RH":"12",
        "Cuenca":"Alto Lerma"
    },
    {
        "Clave":"ECHGJ",
        "Estacion":"El Chapín, Gto.",
        "Latitud":20.872222,
        "Longitud":-101.244444,
        "Altitud":1775,
        "Estado":"Guanajuato",
        "Municipio":"Guanajuato",
        "RH":"12",
        "Cuenca":"Medio Lerma"
    },
    {
        "Clave":"ECLGJ",
        "Estacion":"El Colorado, Gto.",
        "Latitud":20.650556,
        "Longitud":-101.8825,
        "Altitud":1738,
        "Estado":"Guanajuato",
        "Municipio":"Manuel Doblado",
        "RH":null,
        "Cuenca":"Medio Lerma"
    },
    {
        "Clave":"JCRGJ",
        "Estacion":"Jerécuaro, Gto.",
        "Latitud":20.145556,
        "Longitud":-100.518333,
        "Altitud":1931,
        "Estado":"Guanajuato",
        "Municipio":"Jerécuaro",
        "RH":"12",
        "Cuenca":"Alto Lerma"
    },
    {
        "Clave":"LADGJ",
        "Estacion":"Las Adjuntas, Gto.",
        "Latitud":20.675278,
        "Longitud":-101.844167,
        "Altitud":1802,
        "Estado":"Guanajuato",
        "Municipio":"Manuel Doblado",
        "RH":"12",
        "Cuenca":"La Laja"
    },
    {
        "Clave":"LMTGJ",
        "Estacion":"Lomo de Toro, Gto.",
        "Latitud":20.3,
        "Longitud":-101.0,
        "Altitud":1890,
        "Estado":"Guanajuato",
        "Municipio":"Salvatierra",
        "RH":"12",
        "Cuenca":"Alto Lerma"
    },
    {
        "Clave":"MRKGJ",
        "Estacion":"Markazuza, Gto.",
        "Latitud":20.325833,
        "Longitud":-101.458333,
        "Altitud":1695,
        "Estado":"Guanajuato",
        "Municipio":"Valle de Santiago",
        "RH":null,
        "Cuenca":"Medio Lerma"
    },
    {
        "Clave":"PDLGJ",
        "Estacion":"Puente Dolores, Gto.",
        "Latitud":21.168056,
        "Longitud":-100.900556,
        "Altitud":1837,
        "Estado":"Guanajuato",
        "Municipio":"Dolores Hidalgo Cuna de la Independencia Nacional",
        "RH":"12",
        "Cuenca":"La Laja"
    },
    {
        "Clave":"PERGJ",
        "Estacion":"Pericos, Gto.",
        "Latitud":20.5225,
        "Longitud":-101.111389,
        "Altitud":1722,
        "Estado":"Guanajuato",
        "Municipio":"Salamanca",
        "RH":"12",
        "Cuenca":"La Laja"
    },
    {
        "Clave":"SL2GJ",
        "Estacion":"Solis, Gto.",
        "Latitud":20.05,
        "Longitud":-100.666667,
        "Altitud":1879,
        "Estado":"Guanajuato",
        "Municipio":"Acámbaro",
        "RH":"12",
        "Cuenca":"Alto Lerma"
    },
    {
        "Clave":"SLCGJ",
        "Estacion":"Canal Solis, Gto.",
        "Latitud":20.052222,
        "Longitud":-100.671667,
        "Altitud":1879,
        "Estado":"Guanajuato",
        "Municipio":"Acámbaro",
        "RH":"12",
        "Cuenca":"Alto Lerma"
    },
    {
        "Clave":"SLMGJ",
        "Estacion":"Salamanca, Gto.",
        "Latitud":20.565833,
        "Longitud":-101.199444,
        "Altitud":1713,
        "Estado":"Guanajuato",
        "Municipio":"Salamanca",
        "RH":"12",
        "Cuenca":"Medio Lerma"
    },
    {
        "Clave":"SLVGJ",
        "Estacion":"Salvatierra, Gto.",
        "Latitud":20.216667,
        "Longitud":-100.885833,
        "Altitud":1758,
        "Estado":"Guanajuato",
        "Municipio":"Salvatierra",
        "RH":"12",
        "Cuenca":"Alto Lerma"
    },
    {
        "Clave":"TEMGJ",
        "Estacion":"Temascatío, Gto.",
        "Latitud":20.6,
        "Longitud":-101.3,
        "Altitud":1840,
        "Estado":"Guanajuato",
        "Municipio":"Irapuato",
        "RH":"12",
        "Cuenca":"Alto Lerma"
    },
    {
        "Clave":"TGRGJ",
        "Estacion":"Tres Guerras, Gto.",
        "Latitud":20.515833,
        "Longitud":-100.775278,
        "Altitud":1368,
        "Estado":"Guanajuato",
        "Municipio":"Celaya",
        "RH":"12",
        "Cuenca":"La Laja"
    },
    {
        "Clave":"TPCGJ",
        "Estacion":"Tepalcates, Gto.",
        "Latitud":20.740278,
        "Longitud":-101.370833,
        "Altitud":1770,
        "Estado":"Guanajuato",
        "Municipio":"Irapuato",
        "RH":"0",
        "Cuenca":"Alto Lerma"
    },
    {
        "Clave":"ACEHD",
        "Estacion":"Arroyo del centro, Hgo.",
        "Latitud":20.455833,
        "Longitud":-99.230833,
        "Altitud":0,
        "Estado":"Hidalgo",
        "Municipio":"Tecomán",
        "RH":"26",
        "Cuenca":"Valle de México"
    },
    {
        "Clave":"ARSHD",
        "Estacion":"Al Río el Salto, Hgo.",
        "Latitud":19.937778,
        "Longitud":-99.283333,
        "Altitud":0,
        "Estado":"Hidalgo",
        "Municipio":"Tepeji del Río de Ocampo",
        "RH":"26",
        "Cuenca":"Valle de México"
    },
    {
        "Clave":"ATCHD",
        "Estacion":"Atlapexco, Hgo.",
        "Latitud":21.019444,
        "Longitud":-98.348056,
        "Altitud":156,
        "Estado":"Hidalgo",
        "Municipio":"Atlapexco",
        "RH":"26",
        "Cuenca":"Bajo Pánuco"
    },
    {
        "Clave":"CDCHD",
        "Estacion":"Canal del centro, Hgo.",
        "Latitud":20.454167,
        "Longitud":-99.231111,
        "Altitud":0,
        "Estado":"Hidalgo",
        "Municipio":"Ixmiquilpan",
        "RH":"26",
        "Cuenca":"Valle de México"
    },
    {
        "Clave":"CDFHD",
        "Estacion":"Canal de fuerza, Hgo.",
        "Latitud":20.452778,
        "Longitud":-99.230833,
        "Altitud":0,
        "Estado":"Hidalgo",
        "Municipio":"Ixmiquilpan",
        "RH":"26",
        "Cuenca":"Valle de México"
    },
    {
        "Clave":"CL1HD",
        "Estacion":"Canal de liga 1 Rojo Gómez a Vicente Aguirre, Hgo.",
        "Latitud":20.366667,
        "Longitud":-99.322222,
        "Altitud":0,
        "Estado":"Hidalgo",
        "Municipio":"Ixmiquilpan",
        "RH":"26",
        "Cuenca":"Valle de México"
    },
    {
        "Clave":"CPEHD",
        "Estacion":"Canal a Presa Endhó, Hgo.",
        "Latitud":20.132222,
        "Longitud":-99.351944,
        "Altitud":0,
        "Estado":"Hidalgo",
        "Municipio":"Alfajayucan",
        "RH":"26",
        "Cuenca":"Valle de México"
    },
    {
        "Clave":"CSTHD",
        "Estacion":"Canal Salto Tlamaco, Hgo.",
        "Latitud":20.0375,
        "Longitud":-99.222778,
        "Altitud":0,
        "Estado":"Hidalgo",
        "Municipio":"Tepetitlán",
        "RH":"26",
        "Cuenca":"Valle de México"
    },
    {
        "Clave":"CVAHD",
        "Estacion":"Canal Vicente Aguirre, Hgo.",
        "Latitud":20.414167,
        "Longitud":-99.3575,
        "Altitud":0,
        "Estado":"Hidalgo",
        "Municipio":"Atitalaquia",
        "RH":"26",
        "Cuenca":"Valle de México"
    },
    {
        "Clave":"RSTHD",
        "Estacion":"Río Salado Tablón, Hgo.",
        "Latitud":20.051111,
        "Longitud":-99.225278,
        "Altitud":0,
        "Estado":"Hidalgo",
        "Municipio":"Atitalaquia",
        "RH":"26",
        "Cuenca":"Valle de México"
    },
    {
        "Clave":"RTTHD",
        "Estacion":"Río Tula Tasquillo, Hgo.",
        "Latitud":20.576389,
        "Longitud":-99.342778,
        "Altitud":0,
        "Estado":"Hidalgo",
        "Municipio":"Tasquillo",
        "RH":"26",
        "Cuenca":"Valle de México"
    },
    {
        "Clave":"ORZHD",
        "Estacion":"San Felipe Orizatlán, Hgo.",
        "Latitud":21.166667,
        "Longitud":-98.6,
        "Altitud":2370,
        "Estado":"Hidalgo",
        "Municipio":"San Felipe Orizatlán",
        "RH":"26",
        "Cuenca":"Bajo Pánuco"
    },
    {
        "Clave":"AJJJL",
        "Estacion":"Ajojúcar, Jal.",
        "Latitud":21.599444,
        "Longitud":-102.436944,
        "Altitud":1751,
        "Estado":"Jalisco",
        "Municipio":"Teocaltiche",
        "RH":"12",
        "Cuenca":"Río Alto Santiago"
    },
    {
        "Clave":"ATEJL",
        "Estacion":"Atemajac, Jal.",
        "Latitud":20.723056,
        "Longitud":-102.34,
        "Altitud":0,
        "Estado":"Jalisco",
        "Municipio":"Arandas",
        "RH":"12",
        "Cuenca":"Bajo Lerma"
    },
    {
        "Clave":"ATQJL",
        "Estacion":"Atequiza, Jal.",
        "Latitud":20.397222,
        "Longitud":-103.091944,
        "Altitud":1528,
        "Estado":"Jalisco",
        "Municipio":"Chapala",
        "RH":"12",
        "Cuenca":"Río Alto Santiago"
    },
    {
        "Clave":"BCSJL",
        "Estacion":"Bocas, Jal.",
        "Latitud":22.406111,
        "Longitud":-103.724444,
        "Altitud":1743,
        "Estado":"Jalisco",
        "Municipio":"Mezquitic",
        "RH":"12",
        "Cuenca":"Rio Bajo Santiago"
    },
    {
        "Clave":"BLNJL",
        "Estacion":"Bolaños, Jal.",
        "Latitud":21.831667,
        "Longitud":-103.782778,
        "Altitud":916,
        "Estado":"Jalisco",
        "Municipio":"Bolaños",
        "RH":"12",
        "Cuenca":"Rio Bajo Santiago"
    },
    {
        "Clave":"BOQJL",
        "Estacion":"La Boquilla, Jal.",
        "Latitud":21.058333,
        "Longitud":-103.397222,
        "Altitud":0,
        "Estado":"Jalisco",
        "Municipio":"San Cristóbal de la Barranca",
        "RH":"0",
        "Cuenca":"Río Alto Santiago"
    },
    {
        "Clave":"CALJL",
        "Estacion":"Calerita, Jal.",
        "Latitud":21.436111,
        "Longitud":-102.578611,
        "Altitud":1747,
        "Estado":"Jalisco",
        "Municipio":"Teocaltiche",
        "RH":"0",
        "Cuenca":"Río Alto Santiago"
    },
    {
        "Clave":"CIHJL",
        "Estacion":"Cihuatlán, Jal.",
        "Latitud":19.233333,
        "Longitud":-104.566667,
        "Altitud":13,
        "Estado":"Jalisco",
        "Municipio":"Cihuatlán",
        "RH":"16",
        "Cuenca":"Costa de Jalisco"
    },
    {
        "Clave":"CORJL",
        "Estacion":"Corona, Jal.",
        "Latitud":20.404167,
        "Longitud":-103.083333,
        "Altitud":1520,
        "Estado":"Jalisco",
        "Municipio":"Zapotlán del Rey",
        "RH":"0",
        "Cuenca":"Bajo Lerma"
    },
    {
        "Clave":"CULJL",
        "Estacion":"Cuale, Jal.",
        "Latitud":20.593333,
        "Longitud":-105.218333,
        "Altitud":54,
        "Estado":"Jalisco",
        "Municipio":"Puerto Vallarta",
        "RH":"16",
        "Cuenca":"Hucicila"
    },
    {
        "Clave":"CUNJL",
        "Estacion":"La Cuña, Jal.",
        "Latitud":21.133333,
        "Longitud":-102.85,
        "Altitud":1700,
        "Estado":"Jalisco",
        "Municipio":"Yahualica de González Gallo",
        "RH":"12",
        "Cuenca":"Río Alto Santiago"
    },
    {
        "Clave":"CXTJL",
        "Estacion":"Cuixtla, Jal.",
        "Latitud":21.066667,
        "Longitud":-103.45,
        "Altitud":816,
        "Estado":"Jalisco",
        "Municipio":"San Cristóbal de la Barranca",
        "RH":"12",
        "Cuenca":"Río Alto Santiago"
    },
    {
        "Clave":"ELCJL",
        "Estacion":"El Corcovado, Jal.",
        "Latitud":19.845833,
        "Longitud":-104.285278,
        "Altitud":898,
        "Estado":"Jalisco",
        "Municipio":"Autlán de Navarro",
        "RH":"12",
        "Cuenca":"Río Armería"
    },
    {
        "Clave":"EXPJL",
        "Estacion":"La Experiencia, Jal.",
        "Latitud":20.723333,
        "Longitud":-103.335,
        "Altitud":1550,
        "Estado":"Jalisco",
        "Municipio":"Guadalajara",
        "RH":"12",
        "Cuenca":"Alto Lerma"
    },
    {
        "Clave":"HIGJL",
        "Estacion":"Higuera Blanca 2, Jal.",
        "Latitud":19.653889,
        "Longitud":-105.184444,
        "Altitud":200,
        "Estado":"Jalisco",
        "Municipio":"Tomatlán",
        "RH":null,
        "Cuenca":"Costa de Jalisco"
    },
    {
        "Clave":"LDMJL",
        "Estacion":"Lagos de Moreno, Jal.",
        "Latitud":21.359722,
        "Longitud":-101.919722,
        "Altitud":1871,
        "Estado":"Jalisco",
        "Municipio":"Lagos de Moreno",
        "RH":"12",
        "Cuenca":"Río Alto Santiago"
    },
    {
        "Clave":"LGLJL",
        "Estacion":"La Gloria, Jal.",
        "Latitud":22.068056,
        "Longitud":-103.396389,
        "Altitud":1465,
        "Estado":"Jalisco",
        "Municipio":"Colotlán",
        "RH":"12",
        "Cuenca":"Alto Lerma"
    },
    {
        "Clave":"PAMJL",
        "Estacion":"Puente Ameca, Jal.",
        "Latitud":20.55,
        "Longitud":-104.05,
        "Altitud":0,
        "Estado":"Jalisco",
        "Municipio":"Ameca",
        "RH":"0",
        "Cuenca":"Río Ameca"
    },
    {
        "Clave":"PDSJL",
        "Estacion":"Paso del Sabino, Jal.",
        "Latitud":21.337222,
        "Longitud":-102.532778,
        "Altitud":1699,
        "Estado":"Jalisco",
        "Municipio":"Teocaltiche",
        "RH":"12",
        "Cuenca":"Alto Lerma"
    },
    {
        "Clave":"PINJL",
        "Estacion":"El Pinito, Jal.",
        "Latitud":22.6,
        "Longitud":-103.916667,
        "Altitud":1858,
        "Estado":"Jalisco",
        "Municipio":"Huejuquilla el Alto",
        "RH":"12",
        "Cuenca":"Rio Bajo Santiago"
    },
    {
        "Clave":"RAMJL",
        "Estacion":"Río Ameca, Jal.",
        "Latitud":20.55,
        "Longitud":-104.05,
        "Altitud":1230,
        "Estado":"Jalisco",
        "Municipio":"Ameca",
        "RH":"15",
        "Cuenca":"Río Ameca"
    },
    {
        "Clave":"RSLJL",
        "Estacion":"Los Rosillos, Jal.",
        "Latitud":20.758333,
        "Longitud":-103.9875,
        "Altitud":0,
        "Estado":"Jalisco",
        "Municipio":"San Juanito de Escobedo",
        "RH":"14",
        "Cuenca":"Río Ameca"
    },
    {
        "Clave":"SAUJL",
        "Estacion":"La Sauceda, Jal.",
        "Latitud":21.35,
        "Longitud":-101.85,
        "Altitud":1940,
        "Estado":"Jalisco",
        "Municipio":"Lagos de Moreno",
        "RH":"12",
        "Cuenca":"Río Alto Santiago"
    },
    {
        "Clave":"SCRJL",
        "Estacion":"San Cristóbal 2, Jal.",
        "Latitud":21.038889,
        "Longitud":-103.429167,
        "Altitud":0,
        "Estado":"Jalisco",
        "Municipio":"San Cristóbal de la Barranca",
        "RH":"12",
        "Cuenca":"Río Alto Santiago"
    },
    {
        "Clave":"SGRJL",
        "Estacion":"San Gaspar de los Reyes, Jal.",
        "Latitud":21.3,
        "Longitud":-102.5,
        "Altitud":1740,
        "Estado":"Jalisco",
        "Municipio":"Jalostotitlán",
        "RH":"12",
        "Cuenca":"Río Alto Santiago"
    },
    {
        "Clave":"SRSJL",
        "Estacion":"Manuel M. Diéguez, Jal.",
        "Latitud":20.908889,
        "Longitud":-103.705556,
        "Altitud":730,
        "Estado":"Jalisco",
        "Municipio":"Amatitán",
        "RH":"12",
        "Cuenca":"Río Alto Santiago"
    },
    {
        "Clave":"YESJL",
        "Estacion":"La Yesca, Jal.",
        "Latitud":21.193056,
        "Longitud":-104.090278,
        "Altitud":420,
        "Estado":"Jalisco",
        "Municipio":"Hostotipaquillo",
        "RH":"16",
        "Cuenca":"Rio Bajo Santiago"
    },
    {
        "Clave":"ZAPJL",
        "Estacion":"Zapotlanejo, Jal.",
        "Latitud":20.404167,
        "Longitud":-103.0875,
        "Altitud":98,
        "Estado":"Jalisco",
        "Municipio":"Juanacatlán",
        "RH":"0",
        "Cuenca":"Bajo Lerma"
    },
    {
        "Clave":"ZPTJL",
        "Estacion":"El Zapote, Jal.",
        "Latitud":22.05,
        "Longitud":-103.05,
        "Altitud":1589,
        "Estado":"Jalisco",
        "Municipio":"El Plateado de Joaquín Amaro",
        "RH":"12",
        "Cuenca":"Bajo Lerma"
    },
    {
        "Clave":"ZULJL",
        "Estacion":"Zula río, Jal.",
        "Latitud":20.395278,
        "Longitud":-102.729444,
        "Altitud":0,
        "Estado":"Jalisco",
        "Municipio":"Ocotlán",
        "RH":"12",
        "Cuenca":"Bajo Lerma"
    },
    {
        "Clave":"ACLMX",
        "Estacion":"Puente Atlacomulco, Méx.",
        "Latitud":19.788889,
        "Longitud":-99.893056,
        "Altitud":2496,
        "Estado":"México",
        "Municipio":"Atlacomulco",
        "RH":"0",
        "Cuenca":"Alto Lerma"
    },
    {
        "Clave":"ARBMX",
        "Estacion":"Las Arboledas, Méx.",
        "Latitud":19.566667,
        "Longitud":-99.216667,
        "Altitud":2280,
        "Estado":"México",
        "Municipio":"Atizapán de Zaragoza",
        "RH":"26",
        "Cuenca":"Valle de México"
    },
    {
        "Clave":"ATEMX",
        "Estacion":"Atenco, Méx.",
        "Latitud":19.543611,
        "Longitud":-98.912222,
        "Altitud":2248,
        "Estado":"México",
        "Municipio":"Atenco",
        "RH":"26",
        "Cuenca":"Valle de México"
    },
    {
        "Clave":"ATOMX",
        "Estacion":"Atotonilco 2, Méx.",
        "Latitud":19.452778,
        "Longitud":-99.776389,
        "Altitud":2557,
        "Estado":"México",
        "Municipio":"Almoloya de Juárez",
        "RH":"12",
        "Cuenca":"Alto Lerma"
    },
    {
        "Clave":"ATTMX",
        "Estacion":"Atotonilco, Méx.",
        "Latitud":19.443611,
        "Longitud":-99.773611,
        "Altitud":2570,
        "Estado":"México",
        "Municipio":"Almoloya de Juárez",
        "RH":"0",
        "Cuenca":"Alto Lerma"
    },
    {
        "Clave":"AURMX",
        "Estacion":"Canal la Aurora, Méx.",
        "Latitud":19.638056,
        "Longitud":-99.250556,
        "Altitud":0,
        "Estado":"México",
        "Municipio":"Lázaro Cárdenas",
        "RH":"26",
        "Cuenca":"Valle de México"
    },
    {
        "Clave":"CALMX",
        "Estacion":"Calixtlahuaca, Méx.",
        "Latitud":19.333333,
        "Longitud":-99.7,
        "Altitud":2635,
        "Estado":"México",
        "Municipio":"Toluca",
        "RH":"12",
        "Cuenca":"Alto Lerma"
    },
    {
        "Clave":"CHPMX",
        "Estacion":"Chapingo, Méx.",
        "Latitud":19.483333,
        "Longitud":-98.884722,
        "Altitud":2250,
        "Estado":"México",
        "Municipio":"Texcoco",
        "RH":"26",
        "Cuenca":"Valle de México"
    },
    {
        "Clave":"ECDMX",
        "Estacion":"El Conde, Méx",
        "Latitud":19.465278,
        "Longitud":-98.869444,
        "Altitud":0,
        "Estado":"México",
        "Municipio":"Texcoco",
        "RH":null,
        "Cuenca":"Valle de México"
    },
    {
        "Clave":"EMOMX",
        "Estacion":"El Molinito Río Hondo, Méx.",
        "Latitud":19.453611,
        "Longitud":-99.238333,
        "Altitud":229,
        "Estado":"México",
        "Municipio":"Naucalpan de Juárez",
        "RH":"26",
        "Cuenca":"Valle de México"
    },
    {
        "Clave":"GDLMX",
        "Estacion":"Sierra de Guadalupe, Méx.",
        "Latitud":19.635556,
        "Longitud":-99.252222,
        "Altitud":2290,
        "Estado":"México",
        "Municipio":"Cuautitlán Izcalli",
        "RH":"26",
        "Cuenca":"Valle de México"
    },
    {
        "Clave":"GRDMX",
        "Estacion":"La Grande, Méx.",
        "Latitud":19.578889,
        "Longitud":-98.917222,
        "Altitud":2252,
        "Estado":"México",
        "Municipio":"Tezoyuca",
        "RH":"26",
        "Cuenca":"Valle de México"
    },
    {
        "Clave":"IXCMX",
        "Estacion":"Ixtlahuaca, Méx.",
        "Latitud":19.5675,
        "Longitud":-99.769444,
        "Altitud":2544,
        "Estado":"México",
        "Municipio":"Ixtlahuaca",
        "RH":"12",
        "Cuenca":"Alto Lerma"
    },
    {
        "Clave":"K26MX",
        "Estacion":"km 0 + 262, Méx.",
        "Latitud":19.659722,
        "Longitud":-99.951944,
        "Altitud":0,
        "Estado":"México",
        "Municipio":"San Felipe del Progreso",
        "RH":"0",
        "Cuenca":"Alto Lerma"
    },
    {
        "Clave":"K27MX",
        "Estacion":"km 27+250, Méx.",
        "Latitud":19.633333,
        "Longitud":-99.05,
        "Altitud":2250,
        "Estado":"México",
        "Municipio":"Ecatepec de Morelos",
        "RH":"26",
        "Cuenca":"Valle de México"
    },
    {
        "Clave":"LAYMX",
        "Estacion":"La Y, Méx.",
        "Latitud":19.404444,
        "Longitud":-99.593889,
        "Altitud":2576,
        "Estado":"México",
        "Municipio":"Otzolotepec",
        "RH":"12",
        "Cuenca":"Alto Lerma"
    },
    {
        "Clave":"LLOMX",
        "Estacion":"La Loma, Méx.",
        "Latitud":19.288333,
        "Longitud":-99.556667,
        "Altitud":0,
        "Estado":"México",
        "Municipio":"Toluca",
        "RH":null,
        "Cuenca":"Alto Lerma"
    },
    {
        "Clave":"MBLMX",
        "Estacion":"Molino Blanco, Méx.",
        "Latitud":19.477778,
        "Longitud":-99.220833,
        "Altitud":2326,
        "Estado":"México",
        "Municipio":"Naucalpan de Juárez",
        "RH":"26",
        "Cuenca":"Valle de México"
    },
    {
        "Clave":"MLTMX",
        "Estacion":"Miltepec, Méx",
        "Latitud":19.311389,
        "Longitud":-99.647222,
        "Altitud":0,
        "Estado":"México",
        "Municipio":"Toluca",
        "RH":null,
        "Cuenca":"Alto Lerma"
    },
    {
        "Clave":"NTQMX",
        "Estacion":"Nuevo túnel de Tequixquiac, Méx",
        "Latitud":19.611667,
        "Longitud":-99.151944,
        "Altitud":0,
        "Estado":"México",
        "Municipio":"Tultitlán",
        "RH":null,
        "Cuenca":"Valle de México"
    },
    {
        "Clave":"OBSMX",
        "Estacion":"San Martín Obispo, Méx.",
        "Latitud":19.616667,
        "Longitud":-99.193611,
        "Altitud":2253,
        "Estado":"México",
        "Municipio":"Cuautitlán Izcalli",
        "RH":"26",
        "Cuenca":"Valle de México"
    },
    {
        "Clave":"PCGMX",
        "Estacion":"Puente Colgante, Méx.",
        "Latitud":19.743056,
        "Longitud":-99.181944,
        "Altitud":2254,
        "Estado":"México",
        "Municipio":"Teoloyucan",
        "RH":"26",
        "Cuenca":"Valle de México"
    },
    {
        "Clave":"PMEMX",
        "Estacion":"Puente Mextepec, Méx.",
        "Latitud":19.654444,
        "Longitud":-99.948889,
        "Altitud":0,
        "Estado":"México",
        "Municipio":"San Felipe del Progreso",
        "RH":"0",
        "Cuenca":"Alto Lerma"
    },
    {
        "Clave":"PPBMX",
        "Estacion":"Planta Potabilizadora Madín, Méx.",
        "Latitud":19.465556,
        "Longitud":-99.2675,
        "Altitud":0,
        "Estado":"México",
        "Municipio":"Naucalpan de Juárez",
        "RH":"26",
        "Cuenca":"Valle de México"
    },
    {
        "Clave":"PTCMX",
        "Estacion":"Puente Carretero, Méx",
        "Latitud":19.283611,
        "Longitud":-99.521944,
        "Altitud":2577,
        "Estado":"México",
        "Municipio":"San Mateo Atenco",
        "RH":"12",
        "Cuenca":"Alto Lerma"
    },
    {
        "Clave":"SADMX",
        "Estacion":"San Andrés, Méx.",
        "Latitud":19.530556,
        "Longitud":-98.911111,
        "Altitud":2268,
        "Estado":"México",
        "Municipio":"Texcoco",
        "RH":"26",
        "Cuenca":"Valle de México"
    },
    {
        "Clave":"SB2MX",
        "Estacion":"San Bernabe, Méx",
        "Latitud":19.465556,
        "Longitud":-99.703889,
        "Altitud":2571,
        "Estado":"México",
        "Municipio":"Temoaya",
        "RH":"12",
        "Cuenca":"Alto Lerma"
    },
    {
        "Clave":"SBBMX",
        "Estacion":"José Antonio Alzate, Méx.",
        "Latitud":19.465833,
        "Longitud":-99.704722,
        "Altitud":2571,
        "Estado":"México",
        "Municipio":"Temoaya",
        "RH":"12",
        "Cuenca":"Alto Lerma"
    },
    {
        "Clave":"SLAMX",
        "Estacion":"San Luis Ameca, Méx.",
        "Latitud":19.190278,
        "Longitud":-98.870833,
        "Altitud":2279,
        "Estado":"México",
        "Municipio":"Temamatla",
        "RH":"26",
        "Cuenca":"Valle de México"
    },
    {
        "Clave":"SMLMX",
        "Estacion":"Santa María del Llano, Méx.",
        "Latitud":19.633333,
        "Longitud":-99.8,
        "Altitud":2618,
        "Estado":"México",
        "Municipio":"Ixtlahuaca",
        "RH":"12",
        "Cuenca":"Alto Lerma"
    },
    {
        "Clave":"SNLMX",
        "Estacion":"San Lucas, Méx.",
        "Latitud":19.644722,
        "Longitud":-98.858611,
        "Altitud":2240,
        "Estado":"México",
        "Municipio":"Acolman",
        "RH":"26",
        "Cuenca":"Valle de México"
    },
    {
        "Clave":"TBRMX",
        "Estacion":"Tres Barrancas, Méx.",
        "Latitud":19.343056,
        "Longitud":-99.799167,
        "Altitud":2682,
        "Estado":"México",
        "Municipio":"Almoloya de Juárez",
        "RH":"12",
        "Cuenca":"Alto Lerma"
    },
    {
        "Clave":"TESMX",
        "Estacion":"Texcaltitlán, Méx.",
        "Latitud":18.931389,
        "Longitud":-99.935833,
        "Altitud":2383,
        "Estado":"México",
        "Municipio":"Texcaltitlán",
        "RH":"12",
        "Cuenca":"Medio Balsas"
    },
    {
        "Clave":"TJCMX",
        "Estacion":"El Tejocote, Méx.",
        "Latitud":19.856944,
        "Longitud":-99.905278,
        "Altitud":2449,
        "Estado":"México",
        "Municipio":"Atlacomulco",
        "RH":"26",
        "Cuenca":"Valle de México"
    },
    {
        "Clave":"TMCMX",
        "Estacion":"Temascalcingo, Méx",
        "Latitud":19.904444,
        "Longitud":-100.023056,
        "Altitud":0,
        "Estado":"México",
        "Municipio":"Temascalcingo",
        "RH":null,
        "Cuenca":"Alto Lerma"
    },
    {
        "Clave":"TROMX",
        "Estacion":"Trojes, Méx.",
        "Latitud":19.429167,
        "Longitud":-99.6125,
        "Altitud":2577,
        "Estado":"México",
        "Municipio":"Temoaya",
        "RH":"12",
        "Cuenca":"Medio Balsas"
    },
    {
        "Clave":"TTLMX",
        "Estacion":"Totolica hidrométrica, Méx.",
        "Latitud":19.4525,
        "Longitud":-99.283056,
        "Altitud":2325,
        "Estado":"México",
        "Municipio":"Naucalpan de Juárez",
        "RH":"26",
        "Cuenca":"Valle de México"
    },
    {
        "Clave":"TTQMX",
        "Estacion":"Tajo de Tequixquiac, Méx",
        "Latitud":19.904722,
        "Longitud":-99.123889,
        "Altitud":2229,
        "Estado":"México",
        "Municipio":"Tequixquiac",
        "RH":"2",
        "Cuenca":"Valle de México"
    },
    {
        "Clave":"VDCMX",
        "Estacion":"Vaso de Cristo, Méx.",
        "Latitud":19.510278,
        "Longitud":-99.211667,
        "Altitud":2263,
        "Estado":"México",
        "Municipio":"Tlalnepantla de Baz",
        "RH":"26",
        "Cuenca":"Valle de México"
    },
    {
        "Clave":"ADJMC",
        "Estacion":"Adjuntas, Mich.",
        "Latitud":17.968611,
        "Longitud":-102.195556,
        "Altitud":0,
        "Estado":"Michoacán de Ocampo",
        "Municipio":"Guadalajara",
        "RH":null,
        "Cuenca":"Bajo Lerma"
    },
    {
        "Clave":"ADUMC",
        "Estacion":"Adjuntas, Mich.",
        "Latitud":20.231389,
        "Longitud":-101.99,
        "Altitud":1630,
        "Estado":"Michoacán de Ocampo",
        "Municipio":"Numarán",
        "RH":"12",
        "Cuenca":"Bajo Lerma"
    },
    {
        "Clave":"ANGMC",
        "Estacion":"Angamacutiro, Mich. SMN*",
        "Latitud":20.125556,
        "Longitud":-101.722778,
        "Altitud":1949,
        "Estado":"Michoacán de Ocampo",
        "Municipio":"Angamacutiro",
        "RH":null,
        "Cuenca":"Medio Lerma"
    },
    {
        "Clave":"CAMMC",
        "Estacion":"Camécuaro, Mich.",
        "Latitud":19.916667,
        "Longitud":-102.2125,
        "Altitud":93,
        "Estado":"Michoacán de Ocampo",
        "Municipio":"Tangancícuaro",
        "RH":"0",
        "Cuenca":"Bajo Lerma"
    },
    {
        "Clave":"CBLMC",
        "Estacion":"Casa Blanca, Mich.",
        "Latitud":20.324167,
        "Longitud":-101.461389,
        "Altitud":1694,
        "Estado":"Michoacán de Ocampo",
        "Municipio":"José Sixto Verduzco",
        "RH":"12",
        "Cuenca":"Medio Lerma"
    },
    {
        "Clave":"CHAMC",
        "Estacion":"Chaparaco, Mich.",
        "Latitud":19.973611,
        "Longitud":-102.265278,
        "Altitud":159,
        "Estado":"Michoacán de Ocampo",
        "Municipio":"Zamora",
        "RH":"12",
        "Cuenca":"Bajo Lerma"
    },
    {
        "Clave":"CMNMC",
        "Estacion":"Caimanera, Mich.",
        "Latitud":18.5,
        "Longitud":-100.9,
        "Altitud":234,
        "Estado":"Michoacán de Ocampo",
        "Municipio":"Huetamo",
        "RH":"18",
        "Cuenca":"Medio Balsas"
    },
    {
        "Clave":"CORMC",
        "Estacion":"Corrales, Mich.",
        "Latitud":20.207222,
        "Longitud":-101.861667,
        "Altitud":1693,
        "Estado":"Michoacán de Ocampo",
        "Municipio":"Penjamillo",
        "RH":"12",
        "Cuenca":"Bajo Lerma"
    },
    {
        "Clave":"EGIMC",
        "Estacion":"El Gigante, Mich.",
        "Latitud":19.966667,
        "Longitud":-100.45,
        "Altitud":1961,
        "Estado":"Michoacán de Ocampo",
        "Municipio":"Maravatío",
        "RH":"12",
        "Cuenca":"Alto Lerma"
    },
    {
        "Clave":"ESTMC",
        "Estacion":"La Estanzuela, Mich.",
        "Latitud":20.116667,
        "Longitud":-102.370833,
        "Altitud":1551,
        "Estado":"Michoacán de Ocampo",
        "Municipio":"Ixtlán",
        "RH":"0",
        "Cuenca":"Alto Lerma"
    },
    {
        "Clave":"LCAMC",
        "Estacion":"La Calera, Mich.",
        "Latitud":18.429167,
        "Longitud":-100.997222,
        "Altitud":0,
        "Estado":"Michoacán de Ocampo",
        "Municipio":"Zirándaro",
        "RH":"0",
        "Cuenca":"Medio Balsas"
    },
    {
        "Clave":"LPDMC",
        "Estacion":"La Piedad, Mich.",
        "Latitud":20.354444,
        "Longitud":-102.004444,
        "Altitud":1672,
        "Estado":"Michoacán de Ocampo",
        "Municipio":"La Piedad",
        "RH":"12",
        "Cuenca":"Bajo Lerma"
    },
    {
        "Clave":"LPNMC",
        "Estacion":"Los Panches, Mich.",
        "Latitud":18.848611,
        "Longitud":-102.133333,
        "Altitud":207,
        "Estado":"Michoacán de Ocampo",
        "Municipio":"La Huacana",
        "RH":"18",
        "Cuenca":"Bajo Balsas (Tepalcatepec)"
    },
    {
        "Clave":"LPSMC",
        "Estacion":"La Pastoría, Mich.",
        "Latitud":18.8,
        "Longitud":-102.2,
        "Altitud":221,
        "Estado":"Michoacán de Ocampo",
        "Municipio":"La Huacana",
        "RH":"18",
        "Cuenca":"Bajo Balsas (Tepalcatepec)"
    },
    {
        "Clave":"LPZMC",
        "Estacion":"Los Pinzanes, Mich.",
        "Latitud":18.8,
        "Longitud":-101.2,
        "Altitud":199,
        "Estado":"Michoacán de Ocampo",
        "Municipio":"Huetamo",
        "RH":"18",
        "Cuenca":"Bajo Balsas (Tepalcatepec)"
    },
    {
        "Clave":"RCEMC",
        "Estacion":"Río Celio, Mich.",
        "Latitud":19.972222,
        "Longitud":-102.295,
        "Altitud":1568,
        "Estado":"Michoacán de Ocampo",
        "Municipio":"Zamora",
        "RH":"12",
        "Cuenca":"Bajo Lerma"
    },
    {
        "Clave":"SCRMC",
        "Estacion":"San Cristóbal, Mich.",
        "Latitud":20.208333,
        "Longitud":-102.464722,
        "Altitud":1561,
        "Estado":"Michoacán de Ocampo",
        "Municipio":"Vista Hermosa",
        "RH":"12",
        "Cuenca":"Bajo Lerma"
    },
    {
        "Clave":"TLAMC",
        "Estacion":"Río Tlazazalca, Mich.",
        "Latitud":19.970278,
        "Longitud":-102.059722,
        "Altitud":1797,
        "Estado":"Michoacán de Ocampo",
        "Municipio":"Tlazazalca",
        "RH":"12",
        "Cuenca":"Bajo Lerma"
    },
    {
        "Clave":"VJIMC",
        "Estacion":"Villa Jiménez, Mich.",
        "Latitud":19.55,
        "Longitud":-101.45,
        "Altitud":1980,
        "Estado":"Michoacán de Ocampo",
        "Municipio":"Huiramba",
        "RH":"12",
        "Cuenca":"Alto Lerma"
    },
    {
        "Clave":"YURMC",
        "Estacion":"Yurécuaro, Mich.",
        "Latitud":20.339444,
        "Longitud":-102.242222,
        "Altitud":1537,
        "Estado":"Michoacán de Ocampo",
        "Municipio":"Ayotlán",
        "RH":"12",
        "Cuenca":"Bajo Lerma"
    },
    {
        "Clave":"ALUMR",
        "Estacion":"Alpuyeca, Mor.",
        "Latitud":18.734722,
        "Longitud":-99.258056,
        "Altitud":1041,
        "Estado":"Morelos",
        "Municipio":"Xochitepec",
        "RH":"18",
        "Cuenca":"Medio Balsas"
    },
    {
        "Clave":"AMCMR",
        "Estacion":"Amacuzac, Mor.",
        "Latitud":18.596111,
        "Longitud":-99.376944,
        "Altitud":911,
        "Estado":"Morelos",
        "Municipio":"Amacuzac",
        "RH":"18",
        "Cuenca":"Medio Balsas"
    },
    {
        "Clave":"CRDMR",
        "Estacion":"Canal Rodeo, Mor.",
        "Latitud":18.764444,
        "Longitud":-99.331944,
        "Altitud":1088,
        "Estado":"Morelos",
        "Municipio":"Miacatlán",
        "RH":"18",
        "Cuenca":"Medio Balsas"
    },
    {
        "Clave":"CUAMR",
        "Estacion":"Cuautla, Mor.",
        "Latitud":18.808611,
        "Longitud":-98.948889,
        "Altitud":1303,
        "Estado":"Morelos",
        "Municipio":"Cuautla",
        "RH":"18",
        "Cuenca":"Medio Balsas"
    },
    {
        "Clave":"CXXMR",
        "Estacion":"Canal Xoxocotla, Mor.",
        "Latitud":18.735,
        "Longitud":-99.258333,
        "Altitud":1018,
        "Estado":"Morelos",
        "Municipio":"Xochitepec",
        "RH":"18",
        "Cuenca":"Bajo Balsas (Tepalcatepec)"
    },
    {
        "Clave":"ESTMR",
        "Estacion":"Las Estacas, Mor.",
        "Latitud":18.725,
        "Longitud":-98.1125,
        "Altitud":1130,
        "Estado":"Morelos",
        "Municipio":"Tlaltizapán de Zapata",
        "RH":"18",
        "Cuenca":"Alto Balsas"
    },
    {
        "Clave":"LCUMR",
        "Estacion":"La Cuera, Mor.",
        "Latitud":18.683611,
        "Longitud":-98.914444,
        "Altitud":1186,
        "Estado":"Morelos",
        "Municipio":"Ayala",
        "RH":"18",
        "Cuenca":"Medio Balsas"
    },
    {
        "Clave":"PERMR",
        "Estacion":"Canal Perritos, Mor.",
        "Latitud":18.784167,
        "Longitud":-99.315278,
        "Altitud":1099,
        "Estado":"Morelos",
        "Municipio":"Miacatlán",
        "RH":"18",
        "Cuenca":"Medio Balsas"
    },
    {
        "Clave":"TEMMR",
        "Estacion":"Temixco, Mor.",
        "Latitud":18.856944,
        "Longitud":-99.223611,
        "Altitud":1265,
        "Estado":"Morelos",
        "Municipio":"Jiutepec",
        "RH":"18",
        "Cuenca":"Medio Balsas"
    },
    {
        "Clave":"TICMR",
        "Estacion":"Ticumán, Mor.",
        "Latitud":18.794167,
        "Longitud":-99.103889,
        "Altitud":988,
        "Estado":"Morelos",
        "Municipio":"Tlaltizapán de Zapata",
        "RH":"18",
        "Cuenca":"Medio Balsas"
    },
    {
        "Clave":"TTAMR",
        "Estacion":"Tetlama, Mor.",
        "Latitud":18.833333,
        "Longitud":-99.278333,
        "Altitud":1208,
        "Estado":"Morelos",
        "Municipio":"Temixco",
        "RH":"0",
        "Cuenca":"Medio Balsas"
    },
    {
        "Clave":"XICMR",
        "Estacion":"Xicatlacotla, Mor.",
        "Latitud":18.528889,
        "Longitud":-99.190278,
        "Altitud":814,
        "Estado":"Morelos",
        "Municipio":"Tlaquiltenango",
        "RH":"18",
        "Cuenca":"Medio Balsas"
    },
    {
        "Clave":"YAHMR",
        "Estacion":"Yautepec, Mor.",
        "Latitud":18.899167,
        "Longitud":-99.050556,
        "Altitud":1244,
        "Estado":"Morelos",
        "Municipio":"Yautepec",
        "RH":"18",
        "Cuenca":"Medio Balsas"
    },
    {
        "Clave":"ZCTMR",
        "Estacion":"Observatorio de Zacatepec, Mor.",
        "Latitud":18.651389,
        "Longitud":-99.196667,
        "Altitud":932,
        "Estado":"Morelos",
        "Municipio":"Zacatepec",
        "RH":"18",
        "Cuenca":"Medio Balsas"
    },
    {
        "Clave":"ACANR",
        "Estacion":"Acaponeta, Nay.",
        "Latitud":22.49,
        "Longitud":-105.354167,
        "Altitud":52,
        "Estado":"Nayarit",
        "Municipio":"Acaponeta",
        "RH":"11",
        "Cuenca":"Presidio San Pedro"
    },
    {
        "Clave":"CAINR",
        "Estacion":"El Caimán, Nay.",
        "Latitud":21.201389,
        "Longitud":-104.080556,
        "Altitud":0,
        "Estado":"Nayarit",
        "Municipio":"La Yesca",
        "RH":"12",
        "Cuenca":"Rio Bajo Santiago"
    },
    {
        "Clave":"CAPNR",
        "Estacion":"Capomal, Nay.",
        "Latitud":21.831111,
        "Longitud":-105.1125,
        "Altitud":13,
        "Estado":"Nayarit",
        "Municipio":"Santiago Ixcuintla",
        "RH":"12",
        "Cuenca":"Rio Bajo Santiago"
    },
    {
        "Clave":"CHPNR",
        "Estacion":"Chapalagana, Nay.",
        "Latitud":21.944167,
        "Longitud":-104.5,
        "Altitud":320,
        "Estado":"Nayarit",
        "Municipio":"Del Nayar",
        "RH":"12",
        "Cuenca":"Rio Bajo Santiago"
    },
    {
        "Clave":"GAVNR",
        "Estacion":"Gaviotas, Nay.",
        "Latitud":20.889722,
        "Longitud":-105.136667,
        "Altitud":56,
        "Estado":"Nayarit",
        "Municipio":"Bahía de Banderas",
        "RH":"14",
        "Cuenca":"Río Ameca"
    },
    {
        "Clave":"JMANR",
        "Estacion":"Jesús María, Nay.",
        "Latitud":22.250833,
        "Longitud":-104.516944,
        "Altitud":960,
        "Estado":"Nayarit",
        "Municipio":"Del Nayar",
        "RH":"12",
        "Cuenca":"Rio Bajo Santiago"
    },
    {
        "Clave":"LESNR",
        "Estacion":"La Estancia, Nay.",
        "Latitud":22.558333,
        "Longitud":-105.341667,
        "Altitud":90,
        "Estado":"Nayarit",
        "Municipio":"Acaponeta",
        "RH":"12",
        "Cuenca":"Presidio San Pedro"
    },
    {
        "Clave":"MOLNR",
        "Estacion":"Mololoa, Nay.",
        "Latitud":21.516111,
        "Longitud":-104.889722,
        "Altitud":620,
        "Estado":"Nayarit",
        "Municipio":"Tepic",
        "RH":"12",
        "Cuenca":"Rio Bajo Santiago"
    },
    {
        "Clave":"PAJNR",
        "Estacion":"Pajaritos, Nay.",
        "Latitud":22.377778,
        "Longitud":-105.020833,
        "Altitud":245,
        "Estado":"Nayarit",
        "Municipio":"Del Nayar",
        "RH":"11",
        "Cuenca":"San Pedro - Rosa Morada"
    },
    {
        "Clave":"ROMNR",
        "Estacion":"Rosamorada, Nay.",
        "Latitud":22.119722,
        "Longitud":-105.211667,
        "Altitud":30,
        "Estado":"Nayarit",
        "Municipio":"Rosamorada",
        "RH":"12",
        "Cuenca":"San Pedro - Rosa Morada"
    },
    {
        "Clave":"RUINR",
        "Estacion":"Ruiz, Nay.",
        "Latitud":21.958333,
        "Longitud":-105.1425,
        "Altitud":24,
        "Estado":"Nayarit",
        "Municipio":"Ruiz",
        "RH":"11",
        "Cuenca":"San Pedro - Rosa Morada"
    },
    {
        "Clave":"ADJNL",
        "Estacion":"Las Adjuntas, N.L.",
        "Latitud":24.883333,
        "Longitud":-99.680556,
        "Altitud":385,
        "Estado":"Nuevo León",
        "Municipio":"Hualahuises",
        "RH":"25",
        "Cuenca":"San Fernando"
    },
    {
        "Clave":"ALDNL",
        "Estacion":"Los Aldamas, N.L.",
        "Latitud":26.023611,
        "Longitud":-99.195833,
        "Altitud":288,
        "Estado":"Nuevo León",
        "Municipio":"Doctor Coss",
        "RH":"24",
        "Cuenca":"Río San Juan"
    },
    {
        "Clave":"ARNNL",
        "Estacion":"Arenal, N.L.",
        "Latitud":25.813889,
        "Longitud":-98.975,
        "Altitud":335,
        "Estado":"Nuevo León",
        "Municipio":"General Bravo",
        "RH":"24",
        "Cuenca":"Río San Juan"
    },
    {
        "Clave":"BOCNL",
        "Estacion":"La Boca, N.L.",
        "Latitud":25.425833,
        "Longitud":-100.145833,
        "Altitud":515,
        "Estado":"Nuevo León",
        "Municipio":"Santiago",
        "RH":"24",
        "Cuenca":"Río San Juan"
    },
    {
        "Clave":"CABNL",
        "Estacion":"Cabezones, N.L.",
        "Latitud":24.99,
        "Longitud":-99.743889,
        "Altitud":480,
        "Estado":"Nuevo León",
        "Municipio":"Montemorelos",
        "RH":"25",
        "Cuenca":"San Fernando"
    },
    {
        "Clave":"CAMNL",
        "Estacion":"Camacho, N.L.",
        "Latitud":24.871944,
        "Longitud":-99.578889,
        "Altitud":350,
        "Estado":"Nuevo León",
        "Municipio":"Linares",
        "RH":"25",
        "Cuenca":"San Fernando"
    },
    {
        "Clave":"CDFNL",
        "Estacion":"Ciénega de Flores, N.L.",
        "Latitud":25.952222,
        "Longitud":-100.172222,
        "Altitud":380,
        "Estado":"Nuevo León",
        "Municipio":"Ciénega de Flores",
        "RH":"24",
        "Cuenca":"Río San Juan"
    },
    {
        "Clave":"CDRNL",
        "Estacion":"Cadereyta, N.L.",
        "Latitud":25.590278,
        "Longitud":-99.975,
        "Altitud":330,
        "Estado":"Nuevo León",
        "Municipio":"Cadereyta Jiménez",
        "RH":"24",
        "Cuenca":"Río San Juan"
    },
    {
        "Clave":"CPRNL",
        "Estacion":"José López Portillo, N.L.",
        "Latitud":24.9375,
        "Longitud":-99.399722,
        "Altitud":270,
        "Estado":"Nuevo León",
        "Municipio":"Linares",
        "RH":"25",
        "Cuenca":"San Fernando"
    },
    {
        "Clave":"HERNL",
        "Estacion":"Los Herrera, N.L.",
        "Latitud":25.897778,
        "Longitud":-99.400833,
        "Altitud":240,
        "Estado":"Nuevo León",
        "Municipio":"Los Herreras",
        "RH":"24",
        "Cuenca":"Río San Juan"
    },
    {
        "Clave":"LERNL",
        "Estacion":"Las Enramadas, N.L.",
        "Latitud":25.497222,
        "Longitud":-99.527222,
        "Altitud":230,
        "Estado":"Nuevo León",
        "Municipio":"Los Ramones",
        "RH":"24",
        "Cuenca":"Río San Juan"
    },
    {
        "Clave":"MTMNL",
        "Estacion":"Montemorelos, N.L.",
        "Latitud":25.174167,
        "Longitud":-99.833333,
        "Altitud":375,
        "Estado":"Nuevo León",
        "Municipio":"Montemorelos",
        "RH":"24",
        "Cuenca":"Río San Juan"
    },
    {
        "Clave":"PABNL",
        "Estacion":"Pablillo, N.L.",
        "Latitud":24.856944,
        "Longitud":-99.555556,
        "Altitud":2100,
        "Estado":"Nuevo León",
        "Municipio":"Linares",
        "RH":"25",
        "Cuenca":"San Fernando"
    },
    {
        "Clave":"PAMNL",
        "Estacion":"La Pamona, N.L.",
        "Latitud":24.992778,
        "Longitud":-99.221667,
        "Altitud":195,
        "Estado":"Nuevo León",
        "Municipio":"Linares",
        "RH":"24",
        "Cuenca":"San Fernando"
    },
    {
        "Clave":"RDSNL",
        "Estacion":"Rodríguez, N.L.",
        "Latitud":27.233333,
        "Longitud":-100.133333,
        "Altitud":161,
        "Estado":"Nuevo León",
        "Municipio":"Anáhuac",
        "RH":"24",
        "Cuenca":"Río Medio Bravo"
    },
    {
        "Clave":"TPHNL",
        "Estacion":"Tepehuaje, N.L.",
        "Latitud":25.505278,
        "Longitud":-99.770833,
        "Altitud":250,
        "Estado":"Nuevo León",
        "Municipio":"Cadereyta Jiménez",
        "RH":"24",
        "Cuenca":"Río San Juan"
    },
    {
        "Clave":"ASTOX",
        "Estacion":"Astata, Oax.",
        "Latitud":16.010833,
        "Longitud":-95.700556,
        "Altitud":80,
        "Estado":"Oaxaca",
        "Municipio":"San Pedro Huamelula",
        "RH":"0",
        "Cuenca":"Costa de Oaxaca"
    },
    {
        "Clave":"BOQOX",
        "Estacion":"Boquilla 1, Oax.",
        "Latitud":16.647222,
        "Longitud":-95.929167,
        "Altitud":638,
        "Estado":"Oaxaca",
        "Municipio":"Santa Ana Tavela",
        "RH":"0",
        "Cuenca":"Río Tehuantepec"
    },
    {
        "Clave":"CHIOX",
        "Estacion":"Chicapa, Oax.",
        "Latitud":16.583333,
        "Longitud":-94.816667,
        "Altitud":40,
        "Estado":"Oaxaca",
        "Municipio":"Heroica Ciudad de Juchitán de Zaragoza",
        "RH":"22",
        "Cuenca":"resto de la región"
    },
    {
        "Clave":"CSPOX",
        "Estacion":"Cosolapa, Oax.",
        "Latitud":18.492778,
        "Longitud":-96.658333,
        "Altitud":135,
        "Estado":"Oaxaca",
        "Municipio":"Acatlán de Pérez Figueroa",
        "RH":"RH",
        "Cuenca":"Río Papaloapan"
    },
    {
        "Clave":"DPSOX",
        "Estacion":"Dique Pescaditos, Oax.",
        "Latitud":18.1525,
        "Longitud":-96.388889,
        "Altitud":70,
        "Estado":"Oaxaca",
        "Municipio":"San Miguel Soyaltepec",
        "RH":"28",
        "Cuenca":"Río Papaloapan"
    },
    {
        "Clave":"EMAOX",
        "Estacion":"El Marqués, Oax.",
        "Latitud":16.434722,
        "Longitud":-95.374444,
        "Altitud":98,
        "Estado":"Oaxaca",
        "Municipio":"Santa María Jalapa del Marqués",
        "RH":"22",
        "Cuenca":"resto de la región"
    },
    {
        "Clave":"IXTOX",
        "Estacion":"Ixtepec, Oax.",
        "Latitud":16.583333,
        "Longitud":-95.1,
        "Altitud":69,
        "Estado":"Oaxaca",
        "Municipio":"Ciudad Ixtepec",
        "RH":"22",
        "Cuenca":"resto de la región"
    },
    {
        "Clave":"JACOX",
        "Estacion":"Jacatepec, Oax.",
        "Latitud":17.866667,
        "Longitud":-96.2,
        "Altitud":42,
        "Estado":"Oaxaca",
        "Municipio":"Santa María Jacatepec",
        "RH":"28",
        "Cuenca":"Río Papaloapan"
    },
    {
        "Clave":"NARPB",
        "Estacion":"Naranjastitla, Pue.",
        "Latitud":18.360278,
        "Longitud":-96.781389,
        "Altitud":0,
        "Estado":"Puebla",
        "Municipio":"San Sebastián Tlacotepec",
        "RH":null,
        "Cuenca":"Río Papaloapan"
    },
    {
        "Clave":"OSTOX",
        "Estacion":"Ostuta, Oax.",
        "Latitud":16.5,
        "Longitud":-94.4,
        "Altitud":45,
        "Estado":"Oaxaca",
        "Municipio":"Santo Domingo Zanatepec",
        "RH":"22",
        "Cuenca":"resto de la región"
    },
    {
        "Clave":"PA2OX",
        "Estacion":"Papaloapan 2, Oax.",
        "Latitud":18.166667,
        "Longitud":-96.083333,
        "Altitud":0,
        "Estado":"Oaxaca",
        "Municipio":"San Juan Bautista Tuxtepec",
        "RH":"28",
        "Cuenca":"Río Papaloapan"
    },
    {
        "Clave":"PAPOX",
        "Estacion":"Papaloapan, Oax.",
        "Latitud":18.166667,
        "Longitud":-96.083333,
        "Altitud":14,
        "Estado":"Oaxaca",
        "Municipio":"Cosamaloapan de Carpio",
        "RH":"28",
        "Cuenca":"Río Papaloapan"
    },
    {
        "Clave":"STDOX",
        "Estacion":"Santo Domingo, Oax.",
        "Latitud":18.05,
        "Longitud":-96.55,
        "Altitud":95,
        "Estado":"Oaxaca",
        "Municipio":"San Felipe Jalapa de Díaz",
        "RH":"28",
        "Cuenca":"Río Papaloapan"
    },
    {
        "Clave":"TEQOX",
        "Estacion":"Tequisistlán, Oax.",
        "Latitud":16.416667,
        "Longitud":-95.6,
        "Altitud":170,
        "Estado":"Oaxaca",
        "Municipio":"Magdalena Tequisistlán",
        "RH":"22",
        "Cuenca":"Río Tehuantepec"
    },
    {
        "Clave":"TUXOX",
        "Estacion":"Tuxtepec, Oax.",
        "Latitud":18.083333,
        "Longitud":-96.133333,
        "Altitud":21,
        "Estado":"Oaxaca",
        "Municipio":"San Juan Bautista Tuxtepec",
        "RH":"28",
        "Cuenca":"Río Papaloapan"
    },
    {
        "Clave":"UCFOX",
        "Estacion":"Usila CFE, Oax.",
        "Latitud":17.933056,
        "Longitud":-96.435278,
        "Altitud":125,
        "Estado":"Oaxaca",
        "Municipio":"San Felipe Usila",
        "RH":"28",
        "Cuenca":"Río Papaloapan"
    },
    {
        "Clave":"ZANOX",
        "Estacion":"Zanatepec, Oax.",
        "Latitud":16.4025,
        "Longitud":-94.216111,
        "Altitud":35,
        "Estado":"Oaxaca",
        "Municipio":"San Pedro Tapanatepec",
        "RH":"0",
        "Cuenca":"Costa de Chiapas"
    },
    {
        "Clave":"BAIPB",
        "Estacion":"Buenos Aires CFE, Pue.",
        "Latitud":19.961389,
        "Longitud":-97.503333,
        "Altitud":0,
        "Estado":"Puebla",
        "Municipio":"Tlatlauquitepec",
        "RH":"27",
        "Cuenca":"Norte de Veracruz"
    },
    {
        "Clave":"STLPB",
        "Estacion":"Sontalalco CFE, Pue.",
        "Latitud":19.952778,
        "Longitud":-97.486389,
        "Altitud":0,
        "Estado":"Puebla",
        "Municipio":"Tlatlauquitepec",
        "RH":"27",
        "Cuenca":"Norte de Veracruz"
    },
    {
        "Clave":"TYAPB",
        "Estacion":"Tepeyac, Pue.",
        "Latitud":18.483611,
        "Longitud":-96.861389,
        "Altitud":100,
        "Estado":"Puebla",
        "Municipio":"San Sebastián Tlacotepec",
        "RH":"28",
        "Cuenca":"Río Papaloapan"
    },
    {
        "Clave":"AJTSL",
        "Estacion":"Las Adjuntas, S.L.P.",
        "Latitud":21.972222,
        "Longitud":-98.558333,
        "Altitud":18,
        "Estado":"San Luis Potosí",
        "Municipio":"Tamuín",
        "RH":"26",
        "Cuenca":"Bajo Pánuco"
    },
    {
        "Clave":"BLMSL",
        "Estacion":"Ballesmi, S.L.P.",
        "Latitud":21.748889,
        "Longitud":-98.955833,
        "Altitud":44,
        "Estado":"San Luis Potosí",
        "Municipio":"Ciudad Valles",
        "RH":"26",
        "Cuenca":"Bajo Pánuco"
    },
    {
        "Clave":"GANSL",
        "Estacion":"Gallinas, S.L.P.",
        "Latitud":21.906944,
        "Longitud":-99.239444,
        "Altitud":280,
        "Estado":"San Luis Potosí",
        "Municipio":"Aquismón",
        "RH":"26",
        "Cuenca":"Bajo Pánuco"
    },
    {
        "Clave":"MICSL",
        "Estacion":"Micos, S.L.P.",
        "Latitud":22.12,
        "Longitud":-99.159444,
        "Altitud":310,
        "Estado":"San Luis Potosí",
        "Municipio":"Ciudad Valles",
        "RH":"26",
        "Cuenca":"Bajo Pánuco"
    },
    {
        "Clave":"PUJSL",
        "Estacion":"El Pujal, S.L.P.",
        "Latitud":21.847222,
        "Longitud":-98.939722,
        "Altitud":43,
        "Estado":"San Luis Potosí",
        "Municipio":"Ciudad Valles",
        "RH":"26",
        "Cuenca":"Bajo Pánuco"
    },
    {
        "Clave":"RQTSL",
        "Estacion":"Requetemu, S.L.P.",
        "Latitud":21.425,
        "Longitud":-98.888611,
        "Altitud":82,
        "Estado":"San Luis Potosí",
        "Municipio":"Axtla de Terrazas",
        "RH":"26",
        "Cuenca":"Río Alto Pánuco"
    },
    {
        "Clave":"STRSL",
        "Estacion":"Santa Rosa, S.L.P.",
        "Latitud":22.02,
        "Longitud":-99.055833,
        "Altitud":96,
        "Estado":"San Luis Potosí",
        "Municipio":"Ciudad Valles",
        "RH":"26",
        "Cuenca":"Bajo Pánuco"
    },
    {
        "Clave":"SVTSL",
        "Estacion":"San Vicente, S.L.P.",
        "Latitud":21.692778,
        "Longitud":-98.617222,
        "Altitud":32,
        "Estado":"San Luis Potosí",
        "Municipio":"San Vicente Tancuayalab",
        "RH":"26",
        "Cuenca":"Bajo Pánuco"
    },
    {
        "Clave":"TBLSL",
        "Estacion":"Tierra Blanca, S.L.P.",
        "Latitud":21.246667,
        "Longitud":-98.857222,
        "Altitud":155,
        "Estado":"San Luis Potosí",
        "Municipio":"Tamazunchale",
        "RH":"26",
        "Cuenca":"Río Alto Pánuco"
    },
    {
        "Clave":"TMISL",
        "Estacion":"Observatorio de Tamuín, S.L.P.",
        "Latitud":22.003611,
        "Longitud":-98.773333,
        "Altitud":22,
        "Estado":"San Luis Potosí",
        "Municipio":"Tamuín",
        "RH":"26",
        "Cuenca":"Bajo Pánuco"
    },
    {
        "Clave":"TMTSL",
        "Estacion":"Temamatla, S.L.P.",
        "Latitud":21.241111,
        "Longitud":-98.758889,
        "Altitud":125,
        "Estado":"San Luis Potosí",
        "Municipio":"Tamazunchale",
        "RH":"26",
        "Cuenca":"Río Alto Pánuco"
    },
    {
        "Clave":"TZBSL",
        "Estacion":"Tanzabaca, S.L.P.",
        "Latitud":21.663889,
        "Longitud":-99.213333,
        "Altitud":196,
        "Estado":"San Luis Potosí",
        "Municipio":"Jalpan de Serra",
        "RH":"26",
        "Cuenca":"Bajo Pánuco"
    },
    {
        "Clave":"ACTSI",
        "Estacion":"Acatitán, Sin.",
        "Latitud":24.047222,
        "Longitud":-106.654167,
        "Altitud":15,
        "Estado":"Sinaloa",
        "Municipio":"San Ignacio",
        "RH":"10",
        "Cuenca":"Planicie de Sinaloa"
    },
    {
        "Clave":"AL2SI",
        "Estacion":"El Varejonal hidrométrica, Sin.",
        "Latitud":25.090278,
        "Longitud":-107.383333,
        "Altitud":111,
        "Estado":"Sinaloa",
        "Municipio":"Badiraguato",
        "RH":"10",
        "Cuenca":"Rio Culiacán"
    },
    {
        "Clave":"BCBSI",
        "Estacion":"Bacubirito, Sin.",
        "Latitud":25.816667,
        "Longitud":-107.916667,
        "Altitud":280,
        "Estado":"Sinaloa",
        "Municipio":"Sinaloa",
        "RH":"10",
        "Cuenca":"Río Sinaloa"
    },
    {
        "Clave":"BDRSI",
        "Estacion":"Badiraguato, Sin.",
        "Latitud":25.333333,
        "Longitud":-107.5375,
        "Altitud":280,
        "Estado":"Sinaloa",
        "Municipio":"Badiraguato",
        "RH":"10",
        "Cuenca":"Rio Culiacán"
    },
    {
        "Clave":"CHXSI",
        "Estacion":"Observatorio de Choix, Sin.",
        "Latitud":26.736111,
        "Longitud":-108.329167,
        "Altitud":350,
        "Estado":"Sinaloa",
        "Municipio":"Choix",
        "RH":"10",
        "Cuenca":"Río Fuerte"
    },
    {
        "Clave":"GB2SI",
        "Estacion":"El Sabinal hidrométrica, Sin.",
        "Latitud":26.083333,
        "Longitud":-108.316667,
        "Altitud":150,
        "Estado":"Sinaloa",
        "Municipio":"Sinaloa",
        "RH":"10",
        "Cuenca":"Río Sinaloa"
    },
    {
        "Clave":"GD2SI",
        "Estacion":"Bacurato hidrométrica de Gustavo Díaz Ordaz, Sin.",
        "Latitud":25.855278,
        "Longitud":-107.911944,
        "Altitud":1470,
        "Estado":"Sinaloa",
        "Municipio":"Sinaloa",
        "RH":"10",
        "Cuenca":"Río Sinaloa"
    },
    {
        "Clave":"GGNSI",
        "Estacion":"Guaguana, Sin.",
        "Latitud":26.05,
        "Longitud":-107.85,
        "Altitud":350,
        "Estado":"Sinaloa",
        "Municipio":"Sinaloa",
        "RH":"10",
        "Cuenca":"Río Sinaloa"
    },
    {
        "Clave":"GSVSI",
        "Estacion":"Guasave, Sin.",
        "Latitud":25.716667,
        "Longitud":-108.466667,
        "Altitud":30,
        "Estado":"Sinaloa",
        "Municipio":"Guasave",
        "RH":"10",
        "Cuenca":"Río Sinaloa"
    },
    {
        "Clave":"GTNSI",
        "Estacion":"Guatenipa, Sin.",
        "Latitud":25.344444,
        "Longitud":-107.225,
        "Altitud":290,
        "Estado":"Sinaloa",
        "Municipio":"Badiraguato",
        "RH":"10",
        "Cuenca":"Rio Culiacán"
    },
    {
        "Clave":"IXPSI",
        "Estacion":"Ixpalino, Sin.",
        "Latitud":23.955556,
        "Longitud":-106.595833,
        "Altitud":300,
        "Estado":"Sinaloa",
        "Municipio":"San Ignacio",
        "RH":"10",
        "Cuenca":"Planicie de Sinaloa"
    },
    {
        "Clave":"JNASI",
        "Estacion":"Jaina, Sin.",
        "Latitud":25.9,
        "Longitud":-108.013889,
        "Altitud":200,
        "Estado":"Sinaloa",
        "Municipio":"Sinaloa",
        "RH":"10",
        "Cuenca":"Río Sinaloa"
    },
    {
        "Clave":"LD2SI",
        "Estacion":"Huites hidrométrica, Sin.",
        "Latitud":26.904167,
        "Longitud":-108.35,
        "Altitud":168,
        "Estado":"Sinaloa",
        "Municipio":"Choix",
        "RH":"10",
        "Cuenca":"Río Fuerte"
    },
    {
        "Clave":"LDCSI",
        "Estacion":"Luis Donaldo Colosio, Sin.",
        "Latitud":26.844722,
        "Longitud":-108.367778,
        "Altitud":168,
        "Estado":"Sinaloa",
        "Municipio":"Choix",
        "RH":"10",
        "Cuenca":"Río Fuerte"
    },
    {
        "Clave":"QLTSI",
        "Estacion":"Quelite, Sin.",
        "Latitud":23.5625,
        "Longitud":-106.466667,
        "Altitud":60,
        "Estado":"Sinaloa",
        "Municipio":"Mazatlán",
        "RH":"10",
        "Cuenca":"Planicie de Sinaloa"
    },
    {
        "Clave":"RAVSI",
        "Estacion":"Estación Rancho Viejo, Sin.",
        "Latitud":25.124722,
        "Longitud":-107.755833,
        "Altitud":60,
        "Estado":"Sinaloa",
        "Municipio":"Mocorito",
        "RH":null,
        "Cuenca":"Río Mocorito"
    },
    {
        "Clave":"RSRSI",
        "Estacion":"Rosario, Sin.",
        "Latitud":22.983333,
        "Longitud":-105.85,
        "Altitud":32,
        "Estado":"Sinaloa",
        "Municipio":"Rosario",
        "RH":"11",
        "Cuenca":"Presidio San Pedro"
    },
    {
        "Clave":"SCRSI",
        "Estacion":"Santa Cruz, Sin.",
        "Latitud":24.484722,
        "Longitud":-106.952778,
        "Altitud":109,
        "Estado":"Sinaloa",
        "Municipio":"Cosalá",
        "RH":"10",
        "Cuenca":"Río Elotla"
    },
    {
        "Clave":"SJNSI",
        "Estacion":"San Juan, Sin.",
        "Latitud":25.486667,
        "Longitud":-107.8425,
        "Altitud":144,
        "Estado":"Sinaloa",
        "Municipio":"Mocorito",
        "RH":"10",
        "Cuenca":"Rio Culiacán"
    },
    {
        "Clave":"SN2SI",
        "Estacion":"Sanalona hidrométrica, Sin.",
        "Latitud":24.813889,
        "Longitud":-107.158333,
        "Altitud":170,
        "Estado":"Sinaloa",
        "Municipio":"Culiacán",
        "RH":"10",
        "Cuenca":"Rio Culiacán"
    },
    {
        "Clave":"TBRSI",
        "Estacion":"San Francisco, Chih.",
        "Latitud":26.9425,
        "Longitud":-107.973333,
        "Altitud":400,
        "Estado":"Chihuahua",
        "Municipio":"Urique",
        "RH":"10",
        "Cuenca":"Río Fuerte"
    },
    {
        "Clave":"TORSI",
        "Estacion":"Las Tortugas, Sin.",
        "Latitud":23.088333,
        "Longitud":-105.846944,
        "Altitud":54,
        "Estado":"Sinaloa",
        "Municipio":"Rosario",
        "RH":"1",
        "Cuenca":"Presidio San Pedro"
    },
    {
        "Clave":"CCRSO",
        "Estacion":"Cocoraque, Son.",
        "Latitud":27.416667,
        "Longitud":-109.625,
        "Altitud":100,
        "Estado":"Sonora",
        "Municipio":"Quiriego",
        "RH":"9",
        "Cuenca":"Yaqui - Matapé"
    },
    {
        "Clave":"CJNSO",
        "Estacion":"El Cajón, Son.",
        "Latitud":29.472222,
        "Longitud":-110.736389,
        "Altitud":390,
        "Estado":"Sonora",
        "Municipio":"San Miguel de Horcasitas",
        "RH":"9",
        "Cuenca":"Sonora"
    },
    {
        "Clave":"CZNSO",
        "Estacion":"Cazanate, Son.",
        "Latitud":26.603611,
        "Longitud":-108.7625,
        "Altitud":60,
        "Estado":"Sonora",
        "Municipio":"Alamos",
        "RH":"9",
        "Cuenca":"Río Fuerte"
    },
    {
        "Clave":"ECBSO",
        "Estacion":"El Cubil, Son.",
        "Latitud":29.2,
        "Longitud":-109.233333,
        "Altitud":350,
        "Estado":"Sonora",
        "Municipio":"Sahuaripa",
        "RH":"9",
        "Cuenca":"Yaqui - Matapé"
    },
    {
        "Clave":"NYNSO",
        "Estacion":"Sonoyta, Son.",
        "Latitud":31.866667,
        "Longitud":-112.85,
        "Altitud":350,
        "Estado":"Sonora",
        "Municipio":"General Plutarco Elías Calles",
        "RH":"8",
        "Cuenca":"Río Sonoyta"
    },
    {
        "Clave":"ORGSO",
        "Estacion":"El Orégano, Son.",
        "Latitud":29.229722,
        "Longitud":-110.706111,
        "Altitud":272,
        "Estado":"Sonora",
        "Municipio":"Hermosillo",
        "RH":"9",
        "Cuenca":"Sonora"
    },
    {
        "Clave":"PDNSO",
        "Estacion":"Paso Nácori, Son.",
        "Latitud":29.433333,
        "Longitud":-109.083333,
        "Altitud":533,
        "Estado":"Sonora",
        "Municipio":"Nácori Chico",
        "RH":"9",
        "Cuenca":"Yaqui - Matapé"
    },
    {
        "Clave":"PTASO",
        "Estacion":"Punta de Agua 2, Son.",
        "Latitud":28.472222,
        "Longitud":-110.308333,
        "Altitud":250,
        "Estado":"Sonora",
        "Municipio":"Guaymas",
        "RH":"9",
        "Cuenca":"Yaqui - Matapé"
    },
    {
        "Clave":"PTQSO",
        "Estacion":"Pitiquito, Son.",
        "Latitud":30.697778,
        "Longitud":-112.116667,
        "Altitud":300,
        "Estado":"Sonora",
        "Municipio":"Caborca",
        "RH":"9",
        "Cuenca":"Río Concepción"
    },
    {
        "Clave":"SBNSO",
        "Estacion":"San Bernardo, Son.",
        "Latitud":27.411944,
        "Longitud":-108.876667,
        "Altitud":162,
        "Estado":"Sonora",
        "Municipio":"Alamos",
        "RH":"9",
        "Cuenca":"Río Mayo"
    },
    {
        "Clave":"SRSSO",
        "Estacion":"Santa Rosa 2, Son.",
        "Latitud":30.394722,
        "Longitud":-111.445278,
        "Altitud":537,
        "Estado":"Sonora",
        "Municipio":"Trincheras",
        "RH":"9",
        "Cuenca":"Río Concepción"
    },
    {
        "Clave":"TSOSO",
        "Estacion":"Tesocoma, Son.",
        "Latitud":27.658333,
        "Longitud":-109.2125,
        "Altitud":320,
        "Estado":"Sonora",
        "Municipio":"Quiriego",
        "RH":"9",
        "Cuenca":"Río Mayo"
    },
    {
        "Clave":"BDCTB",
        "Estacion":"Boca del Cerro, Tab.",
        "Latitud":17.433333,
        "Longitud":-91.483333,
        "Altitud":100,
        "Estado":"Tabasco",
        "Municipio":"Tenosique",
        "RH":"30",
        "Cuenca":"Grijalva - Usumacinta"
    },
    {
        "Clave":"EMUTB",
        "Estacion":"Villahermosa Muelle, Tab.",
        "Latitud":17.98,
        "Longitud":-92.916667,
        "Altitud":10,
        "Estado":"Tabasco",
        "Municipio":"Centro",
        "RH":"30",
        "Cuenca":"Bajo Grijalva"
    },
    {
        "Clave":"GABTB",
        "Estacion":"Gaviotas 2, Tab.",
        "Latitud":17.966667,
        "Longitud":-92.916667,
        "Altitud":-2,
        "Estado":"Tabasco",
        "Municipio":"Centro",
        "RH":"0",
        "Cuenca":"Bajo Grijalva"
    },
    {
        "Clave":"GONTB",
        "Estacion":"González, Tab.",
        "Latitud":17.975,
        "Longitud":-93.0,
        "Altitud":1,
        "Estado":"Tabasco",
        "Municipio":"Centro",
        "RH":"30",
        "Cuenca":"Bajo Grijalva"
    },
    {
        "Clave":"MACTB",
        "Estacion":"Macuspana, Tab.",
        "Latitud":17.766667,
        "Longitud":-92.6,
        "Altitud":60,
        "Estado":"Tabasco",
        "Municipio":"Macuspana",
        "RH":"30",
        "Cuenca":"Grijalva - Usumacinta"
    },
    {
        "Clave":"OXOTB",
        "Estacion":"Oxolotán, Tab.",
        "Latitud":17.380556,
        "Longitud":-92.75,
        "Altitud":100,
        "Estado":"Tabasco",
        "Municipio":"Tacotalpa",
        "RH":"30",
        "Cuenca":"Bajo Grijalva"
    },
    {
        "Clave":"PNVTB",
        "Estacion":"Pueblo Nuevo, Tab.",
        "Latitud":17.854167,
        "Longitud":-92.879167,
        "Altitud":60,
        "Estado":"Tabasco",
        "Municipio":"Centro",
        "RH":"30",
        "Cuenca":"Bajo Grijalva"
    },
    {
        "Clave":"PUYTB",
        "Estacion":"Puyacatengo, Tab.",
        "Latitud":17.566667,
        "Longitud":-92.9375,
        "Altitud":72,
        "Estado":"Tabasco",
        "Municipio":"Teapa",
        "RH":"30",
        "Cuenca":"Bajo Grijalva"
    },
    {
        "Clave":"SAMTB",
        "Estacion":"Samaria, Tab.",
        "Latitud":17.996944,
        "Longitud":-93.275556,
        "Altitud":72,
        "Estado":"Tabasco",
        "Municipio":"Cunduacán",
        "RH":"30",
        "Cuenca":"Bajo Grijalva"
    },
    {
        "Clave":"SPTTB",
        "Estacion":"San Pedro, Tab.",
        "Latitud":17.791667,
        "Longitud":-91.158333,
        "Altitud":21,
        "Estado":"Tabasco",
        "Municipio":"Balancán",
        "RH":"30",
        "Cuenca":"Grijalva - Usumacinta"
    },
    {
        "Clave":"TAPTB",
        "Estacion":"Tapijulapa, Tab.",
        "Latitud":17.456944,
        "Longitud":-92.778611,
        "Altitud":60,
        "Estado":"Tabasco",
        "Municipio":"Tacotalpa",
        "RH":"30",
        "Cuenca":"Bajo Grijalva"
    },
    {
        "Clave":"TEATB",
        "Estacion":"Teapa, Tab.",
        "Latitud":17.566667,
        "Longitud":-92.966667,
        "Altitud":72,
        "Estado":"Tabasco",
        "Municipio":"Teapa",
        "RH":"30",
        "Cuenca":"Bajo Grijalva"
    },
    {
        "Clave":"AHLTP",
        "Estacion":"Ahualulco, Tamps.",
        "Latitud":22.986944,
        "Longitud":-99.145556,
        "Altitud":82,
        "Estado":"Tamaulipas",
        "Municipio":"Gómez Farías",
        "RH":"26",
        "Cuenca":"Río Soto la Marina"
    },
    {
        "Clave":"BALTP",
        "Estacion":"Bombas Altamira, Tamps.",
        "Latitud":22.386111,
        "Longitud":-97.926944,
        "Altitud":2,
        "Estado":"Tamaulipas",
        "Municipio":"Altamira",
        "RH":"26",
        "Cuenca":"Bajo Pánuco"
    },
    {
        "Clave":"BRRTP",
        "Estacion":"El Barretal, Tamps.",
        "Latitud":24.1025,
        "Longitud":-99.215,
        "Altitud":226,
        "Estado":"Tamaulipas",
        "Municipio":"Hidalgo",
        "RH":"25",
        "Cuenca":"Río Soto la Marina"
    },
    {
        "Clave":"CORTP",
        "Estacion":"Corona, Tamps.",
        "Latitud":23.887222,
        "Longitud":-98.936667,
        "Altitud":150,
        "Estado":"Tamaulipas",
        "Municipio":"Güémez",
        "RH":"25",
        "Cuenca":"Río Soto la Marina"
    },
    {
        "Clave":"ENNTP",
        "Estacion":"La Encantada, Tamps.",
        "Latitud":23.384444,
        "Longitud":-99.078611,
        "Altitud":375,
        "Estado":"Tamaulipas",
        "Municipio":"Llera",
        "RH":"26",
        "Cuenca":"Bajo Pánuco"
    },
    {
        "Clave":"LSRTP",
        "Estacion":"La Servilleta, Tamps.",
        "Latitud":22.852778,
        "Longitud":-99.120556,
        "Altitud":210,
        "Estado":"Tamaulipas",
        "Municipio":"El Mante",
        "RH":"26",
        "Cuenca":"Bajo Pánuco"
    },
    {
        "Clave":"MAGTP",
        "Estacion":"Magueyes, Tamps.",
        "Latitud":24.567778,
        "Longitud":-99.551944,
        "Altitud":420,
        "Estado":"Tamaulipas",
        "Municipio":"Mainero",
        "RH":"25",
        "Cuenca":"Río Soto la Marina"
    },
    {
        "Clave":"MGSTP",
        "Estacion":"Magiscatzín Dos, Tamps.",
        "Latitud":22.795833,
        "Longitud":-98.705556,
        "Altitud":40,
        "Estado":"Tamaulipas",
        "Municipio":"González",
        "RH":"26",
        "Cuenca":"Bajo Pánuco"
    },
    {
        "Clave":"PADTP",
        "Estacion":"Padilla, Tamps.",
        "Latitud":24.043889,
        "Longitud":-98.903611,
        "Altitud":154,
        "Estado":"Tamaulipas",
        "Municipio":"Padilla",
        "RH":"25",
        "Cuenca":"Río Soto la Marina"
    },
    {
        "Clave":"PDMTP",
        "Estacion":"Paso de Molina, Tamps.",
        "Latitud":23.726667,
        "Longitud":-98.745833,
        "Altitud":122,
        "Estado":"Tamaulipas",
        "Municipio":"Casas",
        "RH":"25",
        "Cuenca":"Río Soto la Marina"
    },
    {
        "Clave":"PVLTP",
        "Estacion":"Puerto de Valles, Tamps.",
        "Latitud":24.184444,
        "Longitud":-99.597778,
        "Altitud":555,
        "Estado":"Tamaulipas",
        "Municipio":"Hidalgo",
        "RH":"25",
        "Cuenca":"Río Soto la Marina"
    },
    {
        "Clave":"RFRTP",
        "Estacion":"Río Frío, Tamps.",
        "Latitud":22.843056,
        "Longitud":-99.026111,
        "Altitud":60,
        "Estado":"Tamaulipas",
        "Municipio":"Xicoténcatl",
        "RH":"26",
        "Cuenca":"Bajo Pánuco"
    },
    {
        "Clave":"SBNTP",
        "Estacion":"Sabinas, Tamps.",
        "Latitud":23.031389,
        "Longitud":-99.093056,
        "Altitud":100,
        "Estado":"Tamaulipas",
        "Municipio":"Gómez Farías",
        "RH":"26",
        "Cuenca":"Bajo Pánuco"
    },
    {
        "Clave":"SGBTP",
        "Estacion":"San Gabriel, Tamps.",
        "Latitud":23.085556,
        "Longitud":-98.7875,
        "Altitud":140,
        "Estado":"Tamaulipas",
        "Municipio":"Xicoténcatl",
        "RH":"26",
        "Cuenca":"Bajo Pánuco"
    },
    {
        "Clave":"TMOTP",
        "Estacion":"El Tomaseño, Tamps.",
        "Latitud":24.251389,
        "Longitud":-99.436111,
        "Altitud":413,
        "Estado":"Tamaulipas",
        "Municipio":"Hidalgo",
        "RH":"25",
        "Cuenca":"Río Soto la Marina"
    },
    {
        "Clave":"TMSTP",
        "Estacion":"Tamesí, Tamps.",
        "Latitud":22.413611,
        "Longitud":-98.421944,
        "Altitud":12,
        "Estado":"Tamaulipas",
        "Municipio":"González",
        "RH":"26",
        "Cuenca":"Bajo Pánuco"
    },
    {
        "Clave":"ARCVC",
        "Estacion":"Ángel Rosario Cabada, Ver.",
        "Latitud":18.583333,
        "Longitud":-95.4375,
        "Altitud":19,
        "Estado":"Veracruz de Ignacio de la Llave",
        "Municipio":"Ángel Rosario Cabada",
        "RH":"28",
        "Cuenca":"Río Papaloapan"
    },
    {
        "Clave":"CRDVC",
        "Estacion":"Cardel, Ver.",
        "Latitud":19.364722,
        "Longitud":-96.374444,
        "Altitud":28,
        "Estado":"Veracruz de Ignacio de la Llave",
        "Municipio":"La Antigua",
        "RH":"28",
        "Cuenca":"Actopan - La Antigua"
    },
    {
        "Clave":"CTTVC",
        "Estacion":"Cuatotolapan, Ver.",
        "Latitud":18.144444,
        "Longitud":-95.295833,
        "Altitud":14,
        "Estado":"Veracruz de Ignacio de la Llave",
        "Municipio":"Hueyapan de Ocampo",
        "RH":"28",
        "Cuenca":"Río Papaloapan"
    },
    {
        "Clave":"ESPVC",
        "Estacion":"El Espinal, Ver.",
        "Latitud":20.2575,
        "Longitud":-97.399167,
        "Altitud":100,
        "Estado":"Veracruz de Ignacio de la Llave",
        "Municipio":"Espinal",
        "RH":null,
        "Cuenca":"Norte de Veracruz"
    },
    {
        "Clave":"GARVC",
        "Estacion":"Garro, Ver.",
        "Latitud":18.270556,
        "Longitud":-95.556944,
        "Altitud":20,
        "Estado":"Veracruz de Ignacio de la Llave",
        "Municipio":"Isla",
        "RH":"28",
        "Cuenca":"Río Papaloapan"
    },
    {
        "Clave":"HGOVC",
        "Estacion":"El Higo, Ver.",
        "Latitud":21.773611,
        "Longitud":-98.459167,
        "Altitud":50,
        "Estado":"Veracruz de Ignacio de la Llave",
        "Municipio":"El Higo",
        "RH":"27",
        "Cuenca":"Bajo Pánuco"
    },
    {
        "Clave":"HLSVC",
        "Estacion":"Los Hules, Ver.",
        "Latitud":21.194444,
        "Longitud":-98.2875,
        "Altitud":75,
        "Estado":"Veracruz de Ignacio de la Llave",
        "Municipio":"Chalma",
        "RH":"26",
        "Cuenca":"Bajo Pánuco"
    },
    {
        "Clave":"MDTVC",
        "Estacion":"Martínez de la Torre, Ver.",
        "Latitud":20.0675,
        "Longitud":-97.048333,
        "Altitud":50,
        "Estado":"Veracruz de Ignacio de la Llave",
        "Municipio":"Martínez de la Torre",
        "RH":"27",
        "Cuenca":"Norte de Veracruz"
    },
    {
        "Clave":"OLVVC",
        "Estacion":"El Olivo, Ver.",
        "Latitud":21.832222,
        "Longitud":-98.503889,
        "Altitud":25,
        "Estado":"Veracruz de Ignacio de la Llave",
        "Municipio":"Pánuco",
        "RH":"26",
        "Cuenca":"Bajo Pánuco"
    },
    {
        "Clave":"PDTVC",
        "Estacion":"Paso del Toro, Ver.",
        "Latitud":19.041667,
        "Longitud":-96.140833,
        "Altitud":8,
        "Estado":"Veracruz de Ignacio de la Llave",
        "Municipio":"Medellín de Bravo",
        "RH":"27",
        "Cuenca":"Actopan - La Antigua"
    },
    {
        "Clave":"PNCVC",
        "Estacion":"Pánuco, Ver.",
        "Latitud":22.06,
        "Longitud":-98.176667,
        "Altitud":10,
        "Estado":"Veracruz de Ignacio de la Llave",
        "Municipio":"Pánuco",
        "RH":"27",
        "Cuenca":"Bajo Pánuco"
    },
    {
        "Clave":"PRCVC",
        "Estacion":"Poza Rica, Ver.",
        "Latitud":20.540833,
        "Longitud":-97.478333,
        "Altitud":50,
        "Estado":"Veracruz de Ignacio de la Llave",
        "Municipio":"Poza Rica de Hidalgo",
        "RH":"27",
        "Cuenca":"Norte de Veracruz"
    },
    {
        "Clave":"PSNVC",
        "Estacion":"Platón Sánchez, Ver.",
        "Latitud":21.297778,
        "Longitud":-98.356667,
        "Altitud":80,
        "Estado":"Veracruz de Ignacio de la Llave",
        "Municipio":"Tantoyuca",
        "RH":"26",
        "Cuenca":"Bajo Pánuco"
    },
    {
        "Clave":"SJEVC",
        "Estacion":"San Juan Evangelista, Ver.",
        "Latitud":17.883333,
        "Longitud":-95.133333,
        "Altitud":29,
        "Estado":"Veracruz de Ignacio de la Llave",
        "Municipio":"San Juan Evangelista",
        "RH":"28",
        "Cuenca":"Río Papaloapan"
    },
    {
        "Clave":"LCEVC",
        "Estacion":"La Ceibilla, Ver.",
        "Latitud":18.229722,
        "Longitud":-95.445278,
        "Altitud":36,
        "Estado":"Veracruz de Ignacio de la Llave",
        "Municipio":"Isla",
        "RH":"28",
        "Cuenca":"Río Papaloapan"
    },
    {
        "Clave":"MINVC",
        "Estacion":"Minatitlán, Ver.",
        "Latitud":17.983333,
        "Longitud":-94.533333,
        "Altitud":60,
        "Estado":"Veracruz de Ignacio de la Llave",
        "Municipio":"Minatitlán",
        "RH":"29",
        "Cuenca":"Coatzacoalcos"
    },
    {
        "Clave":"TLCVC",
        "Estacion":"Tlacotalpan, Ver.",
        "Latitud":18.6,
        "Longitud":-95.65,
        "Altitud":5,
        "Estado":"Veracruz de Ignacio de la Llave",
        "Municipio":"Tlacotalpan",
        "RH":"28",
        "Cuenca":"Río Papaloapan"
    },
    {
        "Clave":"TMOVC",
        "Estacion":"Tierra Morada, Ver.",
        "Latitud":17.571944,
        "Longitud":-94.163333,
        "Altitud":10,
        "Estado":"Veracruz de Ignacio de la Llave",
        "Municipio":"Las Choapas",
        "RH":"29",
        "Cuenca":"Coatzacoalcos"
    },
    {
        "Clave":"TMPVC",
        "Estacion":"Tempoal, Ver.",
        "Latitud":21.499722,
        "Longitud":-98.409444,
        "Altitud":38,
        "Estado":"Veracruz de Ignacio de la Llave",
        "Municipio":"Tempoal",
        "RH":"26",
        "Cuenca":"Bajo Pánuco"
    },
    {
        "Clave":"TRRVC",
        "Estacion":"Terrerillos, Ver.",
        "Latitud":21.039722,
        "Longitud":-98.153056,
        "Altitud":106,
        "Estado":"Veracruz de Ignacio de la Llave",
        "Municipio":"Chicontepec",
        "RH":"27",
        "Cuenca":"Bajo Pánuco"
    },
    {
        "Clave":"VAZVC",
        "Estacion":"Villa Azueta, Ver.",
        "Latitud":18.075,
        "Longitud":-95.7,
        "Altitud":14,
        "Estado":"Veracruz de Ignacio de la Llave",
        "Municipio":"José Azueta",
        "RH":"28",
        "Cuenca":"Río Papaloapan"
    },
    {
        "Clave":"ELPZC",
        "Estacion":"El Platanito, Zac.",
        "Latitud":22.611389,
        "Longitud":-104.050833,
        "Altitud":1030,
        "Estado":"Zacatecas",
        "Municipio":"Valparaíso",
        "RH":"12",
        "Cuenca":"Rio Bajo Santiago"
    },
    {
        "Clave":"LFLZC",
        "Estacion":"La Florida, Zac.",
        "Latitud":22.686944,
        "Longitud":-103.603056,
        "Altitud":1840,
        "Estado":"Zacatecas",
        "Municipio":"Valparaíso",
        "RH":"12",
        "Cuenca":"Rio Bajo Santiago"
    },
    {
        "Clave":"SFOZC",
        "Estacion":"San Francisco, Zac.",
        "Latitud":24.322222,
        "Longitud":-102.884444,
        "Altitud":1690,
        "Estado":"Zacatecas",
        "Municipio":"General Francisco R. Murguía",
        "RH":"36",
        "Cuenca":"Río Aguanaval"
    },
    {
        "Clave":"B24215",
        "Estacion":"San Ambrosio, Chih.",
        "Latitud":27.579167,
        "Longitud":-105.366667,
        "Altitud":0,
        "Estado":"Chihuahua",
        "Municipio":"San Francisco de Conchos",
        "RH":"24",
        "Cuenca":"Río Conchos"
    },
    {
        "Clave":"B005ALR",
        "Estacion":"ABELARDO L. RODRIGUEZ",
        "Latitud":32.446944,
        "Longitud":-116.905833,
        "Altitud":120,
        "Estado":"Baja California",
        "Municipio":"Tijuana",
        "RH":"9",
        "Cuenca":null
    },
    {
        "Clave":"B006ABR",
        "Estacion":"ABELARDO RODRIGUEZ",
        "Latitud":21.916667,
        "Longitud":-102.426944,
        "Altitud":0,
        "Estado":"Aguascalientes",
        "Municipio":"Jesús María",
        "RH":"12",
        "Cuenca":null
    },
    {
        "Clave":"B01002",
        "Estacion":"LA PUERTA",
        "Latitud":32.543889,
        "Longitud":-116.678333,
        "Altitud":480,
        "Estado":"Baja California",
        "Municipio":"Tecate",
        "RH":null,
        "Cuenca":null
    },